$GPRMC,103336.70,A,3401.0980,N,00650.5073,W,020.0,090.0,281025,*0C
$GPGGA,103336.70,3401.0980,N,00650.5073,W,1,08,0.9,15.0,M,48.3,M,,*42
$GPVTG,90.0,T,90.0,M,020.0,N,037.0,K,A*25

$GPRMC,103337.70,A,3401.0980,N,00650.5006,W,020.0,090.0,281025,*0F
$GPGGA,103337.70,3401.0980,N,00650.5006,W,1,08,0.9,15.0,M,48.3,M,,*41
$GPVTG,90.0,T,90.0,M,020.0,N,037.0,K,A*25

$GPRMC,103338.70,A,3401.0980,N,00650.4939,W,020.0,090.0,281025,*04
$GPGGA,103338.70,3401.0980,N,00650.4939,W,1,08,0.9,15.0,M,48.3,M,,*4A
$GPVTG,90.0,T,90.0,M,020.0,N,037.0,K,A*25

$GPRMC,103339.70,A,3401.0980,N,00650.4872,W,020.0,090.0,281025,*0B
$GPGGA,103339.70,3401.0980,N,00650.4872,W,1,08,0.9,15.0,M,48.3,M,,*45
$GPVTG,90.0,T,90.0,M,020.0,N,037.0,K,A*25

$GPRMC,103340.70,A,3401.0980,N,00650.4805,W,020.0,090.0,281025,*05
$GPGGA,103340.70,3401.0980,N,00650.4805,W,1,08,0.9,15.0,M,48.3,M,,*4B
$GPVTG,90.0,T,90.0,M,020.0,N,037.0,K,A*25

$GPRMC,103341.70,A,3401.0980,N,00650.4738,W,020.0,090.0,281025,*05
$GPGGA,103341.70,3401.0980,N,00650.4738,W,1,08,0.9,15.0,M,48.3,M,,*4B
$GPVTG,90.0,T,90.0,M,020.0,N,037.0,K,A*25

$GPRMC,103342.70,A,3401.0980,N,00650.4671,W,020.0,090.0,281025,*0A
$GPGGA,103342.70,3401.0980,N,00650.4671,W,1,08,0.9,15.0,M,48.3,M,,*44
$GPVTG,90.0,T,90.0,M,020.0,N,037.0,K,A*25

$GPRMC,103343.70,A,3401.0980,N,00650.4604,W,020.0,090.0,281025,*09
$GPGGA,103343.70,3401.0980,N,00650.4604,W,1,08,0.9,15.0,M,48.3,M,,*47
$GPVTG,90.0,T,90.0,M,020.0,N,037.0,K,A*25

$GPRMC,103344.71,A,3401.0980,N,00650.4537,W,020.0,090.0,281025,*0C
$GPGGA,103344.71,3401.0980,N,00650.4537,W,1,08,0.9,15.0,M,48.3,M,,*42
$GPVTG,90.0,T,90.0,M,020.0,N,037.0,K,A*25

$GPRMC,103345.71,A,3401.0980,N,00650.4470,W,020.0,090.0,281025,*0F
$GPGGA,103345.71,3401.0980,N,00650.4470,W,1,08,0.9,15.0,M,48.3,M,,*41
$GPVTG,90.0,T,90.0,M,020.0,N,037.0,K,A*25

$GPRMC,103346.71,A,3401.0980,N,00650.4403,W,020.0,090.0,281025,*08
$GPGGA,103346.71,3401.0980,N,00650.4403,W,1,08,0.9,15.0,M,48.3,M,,*46
$GPVTG,90.0,T,90.0,M,020.0,N,037.0,K,A*25

$GPRMC,103347.71,A,3401.0980,N,00650.4336,W,020.0,090.0,281025,*08
$GPGGA,103347.71,3401.0980,N,00650.4336,W,1,08,0.9,15.0,M,48.3,M,,*46
$GPVTG,90.0,T,90.0,M,020.0,N,037.0,K,A*25

$GPRMC,103348.71,A,3401.0980,N,00650.4269,W,020.0,090.0,281025,*0C
$GPGGA,103348.71,3401.0980,N,00650.4269,W,1,08,0.9,15.0,M,48.3,M,,*42
$GPVTG,90.0,T,90.0,M,020.0,N,037.0,K,A*25

$GPRMC,103349.71,A,3401.0980,N,00650.4202,W,020.0,090.0,281025,*00
$GPGGA,103349.71,3401.0980,N,00650.4202,W,1,08,0.9,15.0,M,48.3,M,,*4E
$GPVTG,90.0,T,90.0,M,020.0,N,037.0,K,A*25

$GPRMC,103350.71,A,3401.0980,N,00650.4135,W,020.0,090.0,281025,*0F
$GPGGA,103350.71,3401.0980,N,00650.4135,W,1,08,0.9,15.0,M,48.3,M,,*41
$GPVTG,90.0,T,90.0,M,020.0,N,037.0,K,A*25

$GPRMC,103351.71,A,3401.0980,N,00650.4068,W,020.0,090.0,281025,*07
$GPGGA,103351.71,3401.0980,N,00650.4068,W,1,08,0.9,15.0,M,48.3,M,,*49
$GPVTG,90.0,T,90.0,M,020.0,N,037.0,K,A*25

$GPRMC,103352.72,A,3401.0980,N,00650.4001,W,020.0,090.0,281025,*08
$GPGGA,103352.72,3401.0980,N,00650.4001,W,1,08,0.9,15.0,M,48.3,M,,*46
$GPVTG,90.0,T,90.0,M,020.0,N,037.0,K,A*25

$GPRMC,103353.72,A,3401.0980,N,00650.3934,W,020.0,090.0,281025,*01
$GPGGA,103353.72,3401.0980,N,00650.3934,W,1,08,0.9,15.0,M,48.3,M,,*4F
$GPVTG,90.0,T,90.0,M,020.0,N,037.0,K,A*25

$GPRMC,103354.72,A,3401.0980,N,00650.3867,W,020.0,090.0,281025,*01
$GPGGA,103354.72,3401.0980,N,00650.3867,W,1,08,0.9,15.0,M,48.3,M,,*4F
$GPVTG,90.0,T,90.0,M,020.0,N,037.0,K,A*25

$GPRMC,103355.72,A,3401.0980,N,00650.3800,W,020.0,090.0,281025,*01
$GPGGA,103355.72,3401.0980,N,00650.3800,W,1,08,0.9,15.0,M,48.3,M,,*4F
$GPVTG,90.0,T,90.0,M,020.0,N,037.0,K,A*25

$GPRMC,103356.72,A,3401.0980,N,00650.3733,W,020.0,090.0,281025,*0D
$GPGGA,103356.72,3401.0980,N,00650.3733,W,1,08,0.9,15.0,M,48.3,M,,*43
$GPVTG,90.0,T,90.0,M,020.0,N,037.0,K,A*25

$GPRMC,103357.72,A,3401.0980,N,00650.3666,W,020.0,090.0,281025,*0D
$GPGGA,103357.72,3401.0980,N,00650.3666,W,1,08,0.9,15.0,M,48.3,M,,*43
$GPVTG,90.0,T,90.0,M,020.0,N,037.0,K,A*25

$GPRMC,103358.72,A,3401.0980,N,00650.3599,W,020.0,090.0,281025,*01
$GPGGA,103358.72,3401.0980,N,00650.3599,W,1,08,0.9,15.0,M,48.3,M,,*4F
$GPVTG,90.0,T,90.0,M,020.0,N,037.0,K,A*25

$GPRMC,103359.72,A,3401.0980,N,00650.3532,W,020.0,090.0,281025,*01
$GPGGA,103359.72,3401.0980,N,00650.3532,W,1,08,0.9,15.0,M,48.3,M,,*4F
$GPVTG,90.0,T,90.0,M,020.0,N,037.0,K,A*25

$GPRMC,103400.72,A,3401.0980,N,00650.3465,W,020.0,090.0,281025,*09
$GPGGA,103400.72,3401.0980,N,00650.3465,W,1,08,0.9,15.0,M,48.3,M,,*47
$GPVTG,90.0,T,90.0,M,020.0,N,037.0,K,A*25

$GPRMC,103401.72,A,3401.0980,N,00650.3398,W,020.0,090.0,281025,*0D
$GPGGA,103401.72,3401.0980,N,00650.3398,W,1,08,0.9,15.0,M,48.3,M,,*43
$GPVTG,90.0,T,90.0,M,020.0,N,037.0,K,A*25

$GPRMC,103402.72,A,3401.0980,N,00650.3332,W,020.0,090.0,281025,*0E
$GPGGA,103402.72,3401.0980,N,00650.3332,W,1,08,0.9,15.0,M,48.3,M,,*40
$GPVTG,90.0,T,90.0,M,020.0,N,037.0,K,A*25

$GPRMC,103403.72,A,3401.0980,N,00650.3265,W,020.0,090.0,281025,*0C
$GPGGA,103403.72,3401.0980,N,00650.3265,W,1,08,0.9,15.0,M,48.3,M,,*42
$GPVTG,90.0,T,90.0,M,020.0,N,037.0,K,A*25

$GPRMC,103404.72,A,3401.0980,N,00650.3198,W,020.0,090.0,281025,*0A
$GPGGA,103404.72,3401.0980,N,00650.3198,W,1,08,0.9,15.0,M,48.3,M,,*44
$GPVTG,90.0,T,90.0,M,020.0,N,037.0,K,A*25

$GPRMC,103405.72,A,3401.0980,N,00650.3131,W,020.0,090.0,281025,*08
$GPGGA,103405.72,3401.0980,N,00650.3131,W,1,08,0.9,15.0,M,48.3,M,,*46
$GPVTG,90.0,T,90.0,M,020.0,N,037.0,K,A*25

$GPRMC,103406.73,A,3401.0980,N,00650.3064,W,020.0,090.0,281025,*0B
$GPGGA,103406.73,3401.0980,N,00650.3064,W,1,08,0.9,15.0,M,48.3,M,,*45
$GPVTG,90.0,T,90.0,M,020.0,N,037.0,K,A*25

$GPRMC,103407.73,A,3401.0980,N,00650.2997,W,020.0,090.0,281025,*0E
$GPGGA,103407.73,3401.0980,N,00650.2997,W,1,08,0.9,15.0,M,48.3,M,,*40
$GPVTG,90.0,T,90.0,M,020.0,N,037.0,K,A*25

$GPRMC,103408.73,A,3401.0980,N,00650.2930,W,020.0,090.0,281025,*0C
$GPGGA,103408.73,3401.0980,N,00650.2930,W,1,08,0.9,15.0,M,48.3,M,,*42
$GPVTG,90.0,T,90.0,M,020.0,N,037.0,K,A*25

$GPRMC,103409.73,A,3401.0980,N,00650.2863,W,020.0,090.0,281025,*0A
$GPGGA,103409.73,3401.0980,N,00650.2863,W,1,08,0.9,15.0,M,48.3,M,,*44
$GPVTG,90.0,T,90.0,M,020.0,N,037.0,K,A*25

$GPRMC,103410.73,A,3401.0980,N,00650.2796,W,020.0,090.0,281025,*07
$GPGGA,103410.73,3401.0980,N,00650.2796,W,1,08,0.9,15.0,M,48.3,M,,*49
$GPVTG,90.0,T,90.0,M,020.0,N,037.0,K,A*25

$GPRMC,103411.73,A,3401.0980,N,00650.2729,W,020.0,090.0,281025,*02
$GPGGA,103411.73,3401.0980,N,00650.2729,W,1,08,0.9,15.0,M,48.3,M,,*4C
$GPVTG,90.0,T,90.0,M,020.0,N,037.0,K,A*25

$GPRMC,103412.73,A,3401.0980,N,00650.2662,W,020.0,090.0,281025,*0F
$GPGGA,103412.73,3401.0980,N,00650.2662,W,1,08,0.9,15.0,M,48.3,M,,*41
$GPVTG,90.0,T,90.0,M,020.0,N,037.0,K,A*25

$GPRMC,103413.73,A,3401.0980,N,00650.2595,W,020.0,090.0,281025,*05
$GPGGA,103413.73,3401.0980,N,00650.2595,W,1,08,0.9,15.0,M,48.3,M,,*4B
$GPVTG,90.0,T,90.0,M,020.0,N,037.0,K,A*25

$GPRMC,103414.73,A,3401.0980,N,00650.2528,W,020.0,090.0,281025,*04
$GPGGA,103414.73,3401.0980,N,00650.2528,W,1,08,0.9,15.0,M,48.3,M,,*4A
$GPVTG,90.0,T,90.0,M,020.0,N,037.0,K,A*25

$GPRMC,103415.74,A,3401.0980,N,00650.2461,W,020.0,090.0,281025,*0E
$GPGGA,103415.74,3401.0980,N,00650.2461,W,1,08,0.9,15.0,M,48.3,M,,*40
$GPVTG,90.0,T,90.0,M,020.0,N,037.0,K,A*25

$GPRMC,103416.74,A,3401.0980,N,00650.2394,W,020.0,090.0,281025,*00
$GPGGA,103416.74,3401.0980,N,00650.2394,W,1,08,0.9,15.0,M,48.3,M,,*4E
$GPVTG,90.0,T,90.0,M,020.0,N,037.0,K,A*25

$GPRMC,103417.74,A,3401.0980,N,00650.2327,W,020.0,090.0,281025,*09
$GPGGA,103417.74,3401.0980,N,00650.2327,W,1,08,0.9,15.0,M,48.3,M,,*47
$GPVTG,90.0,T,90.0,M,020.0,N,037.0,K,A*25

$GPRMC,103418.74,A,3401.0980,N,00650.2260,W,020.0,090.0,281025,*04
$GPGGA,103418.74,3401.0980,N,00650.2260,W,1,08,0.9,15.0,M,48.3,M,,*4A
$GPVTG,90.0,T,90.0,M,020.0,N,037.0,K,A*25

$GPRMC,103419.74,A,3401.0980,N,00650.2193,W,020.0,090.0,281025,*0A
$GPGGA,103419.74,3401.0980,N,00650.2193,W,1,08,0.9,15.0,M,48.3,M,,*44
$GPVTG,90.0,T,90.0,M,020.0,N,037.0,K,A*25

$GPRMC,103420.74,A,3401.0980,N,00650.2126,W,020.0,090.0,281025,*0E
$GPGGA,103420.74,3401.0980,N,00650.2126,W,1,08,0.9,15.0,M,48.3,M,,*40
$GPVTG,90.0,T,90.0,M,020.0,N,037.0,K,A*25

$GPRMC,103421.74,A,3401.0980,N,00650.2059,W,020.0,090.0,281025,*06
$GPGGA,103421.74,3401.0980,N,00650.2059,W,1,08,0.9,15.0,M,48.3,M,,*48
$GPVTG,90.0,T,90.0,M,020.0,N,037.0,K,A*25

$GPRMC,103422.74,A,3401.0980,N,00650.1992,W,020.0,090.0,281025,*08
$GPGGA,103422.74,3401.0980,N,00650.1992,W,1,08,0.9,15.0,M,48.3,M,,*46
$GPVTG,90.0,T,90.0,M,020.0,N,037.0,K,A*25

$GPRMC,103423.74,A,3401.0980,N,00650.1925,W,020.0,090.0,281025,*05
$GPGGA,103423.74,3401.0980,N,00650.1925,W,1,08,0.9,15.0,M,48.3,M,,*4B
$GPVTG,90.0,T,90.0,M,020.0,N,037.0,K,A*25

$GPRMC,103424.74,A,3401.0980,N,00650.1858,W,020.0,090.0,281025,*09
$GPGGA,103424.74,3401.0980,N,00650.1858,W,1,08,0.9,15.0,M,48.3,M,,*47
$GPVTG,90.0,T,90.0,M,020.0,N,037.0,K,A*25

$GPRMC,103425.74,A,3401.0980,N,00650.1791,W,020.0,090.0,281025,*02
$GPGGA,103425.74,3401.0980,N,00650.1791,W,1,08,0.9,15.0,M,48.3,M,,*4C
$GPVTG,90.0,T,90.0,M,020.0,N,037.0,K,A*25

$GPRMC,103953.28,A,3358.5324,N,00652.1538,W,020.0,030.0,281025,*04
$GPGGA,103953.28,3358.5324,N,00652.1538,W,1,08,0.9,15.0,M,48.3,M,,*40
$GPVTG,30.0,T,30.0,M,020.0,N,037.0,K,A*25

$GPRMC,103954.28,A,3358.5372,N,00652.1504,W,020.0,030.0,281025,*0F
$GPGGA,103954.28,3358.5372,N,00652.1504,W,1,08,0.9,15.0,M,48.3,M,,*4B
$GPVTG,30.0,T,30.0,M,020.0,N,037.0,K,A*25

$GPRMC,103955.28,A,3358.5421,N,00652.1471,W,020.0,030.0,281025,*0C
$GPGGA,103955.28,3358.5421,N,00652.1471,W,1,08,0.9,15.0,M,48.3,M,,*48
$GPVTG,30.0,T,30.0,M,020.0,N,037.0,K,A*25

$GPRMC,103956.28,A,3358.5469,N,00652.1437,W,020.0,030.0,281025,*01
$GPGGA,103956.28,3358.5469,N,00652.1437,W,1,08,0.9,15.0,M,48.3,M,,*45
$GPVTG,30.0,T,30.0,M,020.0,N,037.0,K,A*25

$GPRMC,103957.28,A,3358.5517,N,00652.1404,W,020.0,030.0,281025,*08
$GPGGA,103957.28,3358.5517,N,00652.1404,W,1,08,0.9,15.0,M,48.3,M,,*4C
$GPVTG,30.0,T,30.0,M,020.0,N,037.0,K,A*25

$GPRMC,103958.28,A,3358.5565,N,00652.1370,W,020.0,030.0,281025,*06
$GPGGA,103958.28,3358.5565,N,00652.1370,W,1,08,0.9,15.0,M,48.3,M,,*42
$GPVTG,30.0,T,30.0,M,020.0,N,037.0,K,A*25

$GPRMC,103959.28,A,3358.5613,N,00652.1337,W,020.0,030.0,281025,*06
$GPGGA,103959.28,3358.5613,N,00652.1337,W,1,08,0.9,15.0,M,48.3,M,,*42
$GPVTG,30.0,T,30.0,M,020.0,N,037.0,K,A*25

$GPRMC,104000.28,A,3358.5661,N,00652.1303,W,020.0,030.0,281025,*06
$GPGGA,104000.28,3358.5661,N,00652.1303,W,1,08,0.9,15.0,M,48.3,M,,*42
$GPVTG,30.0,T,30.0,M,020.0,N,037.0,K,A*25

$GPRMC,104001.28,A,3358.5709,N,00652.1270,W,020.0,030.0,281025,*0D
$GPGGA,104001.28,3358.5709,N,00652.1270,W,1,08,0.9,15.0,M,48.3,M,,*49
$GPVTG,30.0,T,30.0,M,020.0,N,037.0,K,A*25

$GPRMC,104002.29,A,3358.5757,N,00652.1236,W,020.0,030.0,281025,*06
$GPGGA,104002.29,3358.5757,N,00652.1236,W,1,08,0.9,15.0,M,48.3,M,,*42
$GPVTG,30.0,T,30.0,M,020.0,N,037.0,K,A*25

$GPRMC,104003.29,A,3358.5805,N,00652.1203,W,020.0,030.0,281025,*09
$GPGGA,104003.29,3358.5805,N,00652.1203,W,1,08,0.9,15.0,M,48.3,M,,*4D
$GPVTG,30.0,T,30.0,M,020.0,N,037.0,K,A*25

$GPRMC,104004.29,A,3358.5853,N,00652.1169,W,020.0,030.0,281025,*02
$GPGGA,104004.29,3358.5853,N,00652.1169,W,1,08,0.9,15.0,M,48.3,M,,*46
$GPVTG,30.0,T,30.0,M,020.0,N,037.0,K,A*25

$GPRMC,104005.29,A,3358.5901,N,00652.1136,W,020.0,030.0,281025,*0F
$GPGGA,104005.29,3358.5901,N,00652.1136,W,1,08,0.9,15.0,M,48.3,M,,*4B
$GPVTG,30.0,T,30.0,M,020.0,N,037.0,K,A*25

$GPRMC,104006.29,A,3358.5949,N,00652.1102,W,020.0,030.0,281025,*07
$GPGGA,104006.29,3358.5949,N,00652.1102,W,1,08,0.9,15.0,M,48.3,M,,*43
$GPVTG,30.0,T,30.0,M,020.0,N,037.0,K,A*25

$GPRMC,104007.29,A,3358.5998,N,00652.1069,W,020.0,030.0,281025,*06
$GPGGA,104007.29,3358.5998,N,00652.1069,W,1,08,0.9,15.0,M,48.3,M,,*42
$GPVTG,30.0,T,30.0,M,020.0,N,037.0,K,A*25

$GPRMC,104008.29,A,3358.6046,N,00652.1035,W,020.0,030.0,281025,*09
$GPGGA,104008.29,3358.6046,N,00652.1035,W,1,08,0.9,15.0,M,48.3,M,,*4D
$GPVTG,30.0,T,30.0,M,020.0,N,037.0,K,A*25

$GPRMC,104009.29,A,3358.6094,N,00652.1002,W,020.0,030.0,281025,*03
$GPGGA,104009.29,3358.6094,N,00652.1002,W,1,08,0.9,15.0,M,48.3,M,,*47
$GPVTG,30.0,T,30.0,M,020.0,N,037.0,K,A*25

$GPRMC,104010.29,A,3358.6142,N,00652.0968,W,020.0,030.0,281025,*05
$GPGGA,104010.29,3358.6142,N,00652.0968,W,1,08,0.9,15.0,M,48.3,M,,*41
$GPVTG,30.0,T,30.0,M,020.0,N,037.0,K,A*25

$GPRMC,104011.29,A,3358.6190,N,00652.0935,W,020.0,030.0,281025,*03
$GPGGA,104011.29,3358.6190,N,00652.0935,W,1,08,0.9,15.0,M,48.3,M,,*47
$GPVTG,30.0,T,30.0,M,020.0,N,037.0,K,A*25

$GPRMC,104012.29,A,3358.6238,N,00652.0902,W,020.0,030.0,281025,*05
$GPGGA,104012.29,3358.6238,N,00652.0902,W,1,08,0.9,15.0,M,48.3,M,,*41
$GPVTG,30.0,T,30.0,M,020.0,N,037.0,K,A*25

$GPRMC,104013.29,A,3358.6286,N,00652.0868,W,020.0,030.0,281025,*0C
$GPGGA,104013.29,3358.6286,N,00652.0868,W,1,08,0.9,15.0,M,48.3,M,,*48
$GPVTG,30.0,T,30.0,M,020.0,N,037.0,K,A*25

$GPRMC,104014.29,A,3358.6334,N,00652.0835,W,020.0,030.0,281025,*0B
$GPGGA,104014.29,3358.6334,N,00652.0835,W,1,08,0.9,15.0,M,48.3,M,,*4F
$GPVTG,30.0,T,30.0,M,020.0,N,037.0,K,A*25

$GPRMC,104015.29,A,3358.6382,N,00652.0801,W,020.0,030.0,281025,*00
$GPGGA,104015.29,3358.6382,N,00652.0801,W,1,08,0.9,15.0,M,48.3,M,,*44
$GPVTG,30.0,T,30.0,M,020.0,N,037.0,K,A*25

$GPRMC,104016.29,A,3358.6430,N,00652.0768,W,020.0,030.0,281025,*0D
$GPGGA,104016.29,3358.6430,N,00652.0768,W,1,08,0.9,15.0,M,48.3,M,,*49
$GPVTG,30.0,T,30.0,M,020.0,N,037.0,K,A*25

$GPRMC,104017.29,A,3358.6478,N,00652.0734,W,020.0,030.0,281025,*09
$GPGGA,104017.29,3358.6478,N,00652.0734,W,1,08,0.9,15.0,M,48.3,M,,*4D
$GPVTG,30.0,T,30.0,M,020.0,N,037.0,K,A*25

$GPRMC,104018.29,A,3358.6526,N,00652.0701,W,020.0,030.0,281025,*0A
$GPGGA,104018.29,3358.6526,N,00652.0701,W,1,08,0.9,15.0,M,48.3,M,,*4E
$GPVTG,30.0,T,30.0,M,020.0,N,037.0,K,A*25

$GPRMC,104019.30,A,3358.6574,N,00652.0667,W,020.0,030.0,281025,*05
$GPGGA,104019.30,3358.6574,N,00652.0667,W,1,08,0.9,15.0,M,48.3,M,,*41
$GPVTG,30.0,T,30.0,M,020.0,N,037.0,K,A*25

$GPRMC,104020.31,A,3358.6623,N,00652.0634,W,020.0,030.0,281025,*09
$GPGGA,104020.31,3358.6623,N,00652.0634,W,1,08,0.9,15.0,M,48.3,M,,*4D
$GPVTG,30.0,T,30.0,M,020.0,N,037.0,K,A*25

$GPRMC,104021.31,A,3358.6671,N,00652.0600,W,020.0,030.0,281025,*08
$GPGGA,104021.31,3358.6671,N,00652.0600,W,1,08,0.9,15.0,M,48.3,M,,*4C
$GPVTG,30.0,T,30.0,M,020.0,N,037.0,K,A*25

$GPRMC,104022.32,A,3358.6719,N,00652.0567,W,020.0,030.0,281025,*05
$GPGGA,104022.32,3358.6719,N,00652.0567,W,1,08,0.9,15.0,M,48.3,M,,*41
$GPVTG,30.0,T,30.0,M,020.0,N,037.0,K,A*25

$GPRMC,104023.32,A,3358.6767,N,00652.0533,W,020.0,030.0,281025,*0C
$GPGGA,104023.32,3358.6767,N,00652.0533,W,1,08,0.9,15.0,M,48.3,M,,*48
$GPVTG,30.0,T,30.0,M,020.0,N,037.0,K,A*25

$GPRMC,104024.32,A,3358.6815,N,00652.0500,W,020.0,030.0,281025,*01
$GPGGA,104024.32,3358.6815,N,00652.0500,W,1,08,0.9,15.0,M,48.3,M,,*45
$GPVTG,30.0,T,30.0,M,020.0,N,037.0,K,A*25

$GPRMC,104025.32,A,3358.6863,N,00652.0466,W,020.0,030.0,281025,*00
$GPGGA,104025.32,3358.6863,N,00652.0466,W,1,08,0.9,15.0,M,48.3,M,,*44
$GPVTG,30.0,T,30.0,M,020.0,N,037.0,K,A*25

$GPRMC,104026.32,A,3358.6911,N,00652.0433,W,020.0,030.0,281025,*07
$GPGGA,104026.32,3358.6911,N,00652.0433,W,1,08,0.9,15.0,M,48.3,M,,*43
$GPVTG,30.0,T,30.0,M,020.0,N,037.0,K,A*25

$GPRMC,104027.32,A,3358.6959,N,00652.0399,W,020.0,030.0,281025,*0D
$GPGGA,104027.32,3358.6959,N,00652.0399,W,1,08,0.9,15.0,M,48.3,M,,*49
$GPVTG,30.0,T,30.0,M,020.0,N,037.0,K,A*25

$GPRMC,104028.32,A,3358.7007,N,00652.0366,W,020.0,030.0,281025,*01
$GPGGA,104028.32,3358.7007,N,00652.0366,W,1,08,0.9,15.0,M,48.3,M,,*45
$GPVTG,30.0,T,30.0,M,020.0,N,037.0,K,A*25

$GPRMC,104029.32,A,3358.7055,N,00652.0332,W,020.0,030.0,281025,*06
$GPGGA,104029.32,3358.7055,N,00652.0332,W,1,08,0.9,15.0,M,48.3,M,,*42
$GPVTG,30.0,T,30.0,M,020.0,N,037.0,K,A*25

$GPRMC,104030.32,A,3358.7103,N,00652.0299,W,020.0,030.0,281025,*0C
$GPGGA,104030.32,3358.7103,N,00652.0299,W,1,08,0.9,15.0,M,48.3,M,,*48
$GPVTG,30.0,T,30.0,M,020.0,N,037.0,K,A*25

$GPRMC,104031.32,A,3358.7151,N,00652.0265,W,020.0,030.0,281025,*09
$GPGGA,104031.32,3358.7151,N,00652.0265,W,1,08,0.9,15.0,M,48.3,M,,*4D
$GPVTG,30.0,T,30.0,M,020.0,N,037.0,K,A*25

$GPRMC,104032.32,A,3358.7200,N,00652.0232,W,020.0,030.0,281025,*0F
$GPGGA,104032.32,3358.7200,N,00652.0232,W,1,08,0.9,15.0,M,48.3,M,,*4B
$GPVTG,30.0,T,30.0,M,020.0,N,037.0,K,A*25

$GPRMC,104033.32,A,3358.7248,N,00652.0199,W,020.0,030.0,281025,*00
$GPGGA,104033.32,3358.7248,N,00652.0199,W,1,08,0.9,15.0,M,48.3,M,,*44
$GPVTG,30.0,T,30.0,M,020.0,N,037.0,K,A*25

$GPRMC,104034.32,A,3358.7296,N,00652.0165,W,020.0,030.0,281025,*07
$GPGGA,104034.32,3358.7296,N,00652.0165,W,1,08,0.9,15.0,M,48.3,M,,*43
$GPVTG,30.0,T,30.0,M,020.0,N,037.0,K,A*25

$GPRMC,104035.32,A,3358.7344,N,00652.0132,W,020.0,030.0,281025,*0A
$GPGGA,104035.32,3358.7344,N,00652.0132,W,1,08,0.9,15.0,M,48.3,M,,*4E
$GPVTG,30.0,T,30.0,M,020.0,N,037.0,K,A*25

$GPRMC,104036.32,A,3358.7392,N,00652.0098,W,020.0,030.0,281025,*03
$GPGGA,104036.32,3358.7392,N,00652.0098,W,1,08,0.9,15.0,M,48.3,M,,*47
$GPVTG,30.0,T,30.0,M,020.0,N,037.0,K,A*25

$GPRMC,104037.32,A,3358.7440,N,00652.0065,W,020.0,030.0,281025,*08
$GPGGA,104037.32,3358.7440,N,00652.0065,W,1,08,0.9,15.0,M,48.3,M,,*4C
$GPVTG,30.0,T,30.0,M,020.0,N,037.0,K,A*25

$GPRMC,104038.32,A,3358.7488,N,00652.0031,W,020.0,030.0,281025,*02
$GPGGA,104038.32,3358.7488,N,00652.0031,W,1,08,0.9,15.0,M,48.3,M,,*46
$GPVTG,30.0,T,30.0,M,020.0,N,037.0,K,A*25

$GPRMC,104039.32,A,3358.7536,N,00651.9998,W,020.0,030.0,281025,*07
$GPGGA,104039.32,3358.7536,N,00651.9998,W,1,08,0.9,15.0,M,48.3,M,,*43
$GPVTG,30.0,T,30.0,M,020.0,N,037.0,K,A*25

$GPRMC,104040.32,A,3358.7584,N,00651.9964,W,020.0,030.0,281025,*03
$GPGGA,104040.32,3358.7584,N,00651.9964,W,1,08,0.9,15.0,M,48.3,M,,*47
$GPVTG,30.0,T,30.0,M,020.0,N,037.0,K,A*25

$GPRMC,104041.32,A,3358.7632,N,00651.9931,W,020.0,030.0,281025,*0C
$GPGGA,104041.32,3358.7632,N,00651.9931,W,1,08,0.9,15.0,M,48.3,M,,*48
$GPVTG,30.0,T,30.0,M,020.0,N,037.0,K,A*25

$GPRMC,104042.33,A,3358.7680,N,00651.9897,W,020.0,030.0,281025,*0A
$GPGGA,104042.33,3358.7680,N,00651.9897,W,1,08,0.9,15.0,M,48.3,M,,*4E
$GPVTG,30.0,T,30.0,M,020.0,N,037.0,K,A*25

$GPRMC,104043.33,A,3358.7728,N,00651.9864,W,020.0,030.0,281025,*04
$GPGGA,104043.33,3358.7728,N,00651.9864,W,1,08,0.9,15.0,M,48.3,M,,*40
$GPVTG,30.0,T,30.0,M,020.0,N,037.0,K,A*25

$GPRMC,104044.33,A,3358.7776,N,00651.9830,W,020.0,030.0,281025,*09
$GPGGA,104044.33,3358.7776,N,00651.9830,W,1,08,0.9,15.0,M,48.3,M,,*4D
$GPVTG,30.0,T,30.0,M,020.0,N,037.0,K,A*25

$GPRMC,104045.33,A,3358.7825,N,00651.9797,W,020.0,030.0,281025,*03
$GPGGA,104045.33,3358.7825,N,00651.9797,W,1,08,0.9,15.0,M,48.3,M,,*47
$GPVTG,30.0,T,30.0,M,020.0,N,037.0,K,A*25

$GPRMC,104046.33,A,3358.7873,N,00651.9763,W,020.0,030.0,281025,*08
$GPGGA,104046.33,3358.7873,N,00651.9763,W,1,08,0.9,15.0,M,48.3,M,,*4C
$GPVTG,30.0,T,30.0,M,020.0,N,037.0,K,A*25

$GPRMC,104047.33,A,3358.7921,N,00651.9730,W,020.0,030.0,281025,*09
$GPGGA,104047.33,3358.7921,N,00651.9730,W,1,08,0.9,15.0,M,48.3,M,,*4D
$GPVTG,30.0,T,30.0,M,020.0,N,037.0,K,A*25

$GPRMC,104048.33,A,3358.7969,N,00651.9696,W,020.0,030.0,281025,*07
$GPGGA,104048.33,3358.7969,N,00651.9696,W,1,08,0.9,15.0,M,48.3,M,,*43
$GPVTG,30.0,T,30.0,M,020.0,N,037.0,K,A*25

$GPRMC,104049.33,A,3358.8017,N,00651.9663,W,020.0,030.0,281025,*03
$GPGGA,104049.33,3358.8017,N,00651.9663,W,1,08,0.9,15.0,M,48.3,M,,*47
$GPVTG,30.0,T,30.0,M,020.0,N,037.0,K,A*25

$GPRMC,104050.33,A,3358.8065,N,00651.9629,W,020.0,030.0,281025,*00
$GPGGA,104050.33,3358.8065,N,00651.9629,W,1,08,0.9,15.0,M,48.3,M,,*44
$GPVTG,30.0,T,30.0,M,020.0,N,037.0,K,A*25

$GPRMC,104051.33,A,3358.8113,N,00651.9596,W,020.0,030.0,281025,*06
$GPGGA,104051.33,3358.8113,N,00651.9596,W,1,08,0.9,15.0,M,48.3,M,,*42
$GPVTG,30.0,T,30.0,M,020.0,N,037.0,K,A*25

$GPRMC,104052.34,A,3358.8161,N,00651.9563,W,020.0,030.0,281025,*0D
$GPGGA,104052.34,3358.8161,N,00651.9563,W,1,08,0.9,15.0,M,48.3,M,,*49
$GPVTG,30.0,T,30.0,M,020.0,N,037.0,K,A*25

$GPRMC,104053.34,A,3358.8209,N,00651.9529,W,020.0,030.0,281025,*0F
$GPGGA,104053.34,3358.8209,N,00651.9529,W,1,08,0.9,15.0,M,48.3,M,,*4B
$GPVTG,30.0,T,30.0,M,020.0,N,037.0,K,A*25

$GPRMC,104054.34,A,3358.8257,N,00651.9496,W,020.0,030.0,281025,*06
$GPGGA,104054.34,3358.8257,N,00651.9496,W,1,08,0.9,15.0,M,48.3,M,,*42
$GPVTG,30.0,T,30.0,M,020.0,N,037.0,K,A*25

$GPRMC,104055.34,A,3358.8305,N,00651.9462,W,020.0,030.0,281025,*0A
$GPGGA,104055.34,3358.8305,N,00651.9462,W,1,08,0.9,15.0,M,48.3,M,,*4E
$GPVTG,30.0,T,30.0,M,020.0,N,037.0,K,A*25

$GPRMC,104056.34,A,3358.8353,N,00651.9429,W,020.0,030.0,281025,*05
$GPGGA,104056.34,3358.8353,N,00651.9429,W,1,08,0.9,15.0,M,48.3,M,,*41
$GPVTG,30.0,T,30.0,M,020.0,N,037.0,K,A*25

$GPRMC,104057.34,A,3358.8402,N,00651.9395,W,020.0,030.0,281025,*07
$GPGGA,104057.34,3358.8402,N,00651.9395,W,1,08,0.9,15.0,M,48.3,M,,*43
$GPVTG,30.0,T,30.0,M,020.0,N,037.0,K,A*25

$GPRMC,104058.34,A,3358.8450,N,00651.9362,W,020.0,030.0,281025,*07
$GPGGA,104058.34,3358.8450,N,00651.9362,W,1,08,0.9,15.0,M,48.3,M,,*43
$GPVTG,30.0,T,30.0,M,020.0,N,037.0,K,A*25

$GPRMC,104059.34,A,3358.8498,N,00651.9328,W,020.0,030.0,281025,*0C
$GPGGA,104059.34,3358.8498,N,00651.9328,W,1,08,0.9,15.0,M,48.3,M,,*48
$GPVTG,30.0,T,30.0,M,020.0,N,037.0,K,A*25

$GPRMC,104100.34,A,3358.8546,N,00651.9295,W,020.0,030.0,281025,*04
$GPGGA,104100.34,3358.8546,N,00651.9295,W,1,08,0.9,15.0,M,48.3,M,,*40
$GPVTG,30.0,T,30.0,M,020.0,N,037.0,K,A*25

$GPRMC,104101.34,A,3358.8594,N,00651.9261,W,020.0,030.0,281025,*01
$GPGGA,104101.34,3358.8594,N,00651.9261,W,1,08,0.9,15.0,M,48.3,M,,*45
$GPVTG,30.0,T,30.0,M,020.0,N,037.0,K,A*25

$GPRMC,104102.34,A,3358.8642,N,00651.9228,W,020.0,030.0,281025,*07
$GPGGA,104102.34,3358.8642,N,00651.9228,W,1,08,0.9,15.0,M,48.3,M,,*43
$GPVTG,30.0,T,30.0,M,020.0,N,037.0,K,A*25

$GPRMC,104103.34,A,3358.8690,N,00651.9194,W,020.0,030.0,281025,*0D
$GPGGA,104103.34,3358.8690,N,00651.9194,W,1,08,0.9,15.0,M,48.3,M,,*49
$GPVTG,30.0,T,30.0,M,020.0,N,037.0,K,A*25

$GPRMC,104104.34,A,3358.8738,N,00651.9161,W,020.0,030.0,281025,*03
$GPGGA,104104.34,3358.8738,N,00651.9161,W,1,08,0.9,15.0,M,48.3,M,,*47
$GPVTG,30.0,T,30.0,M,020.0,N,037.0,K,A*25

$GPRMC,104105.34,A,3358.8786,N,00651.9127,W,020.0,030.0,281025,*05
$GPGGA,104105.34,3358.8786,N,00651.9127,W,1,08,0.9,15.0,M,48.3,M,,*41
$GPVTG,30.0,T,30.0,M,020.0,N,037.0,K,A*25

$GPRMC,104106.34,A,3358.8834,N,00651.9094,W,020.0,030.0,281025,*09
$GPGGA,104106.34,3358.8834,N,00651.9094,W,1,08,0.9,15.0,M,48.3,M,,*4D
$GPVTG,30.0,T,30.0,M,020.0,N,037.0,K,A*25

$GPRMC,104107.35,A,3358.8882,N,00651.9060,W,020.0,030.0,281025,*0F
$GPGGA,104107.35,3358.8882,N,00651.9060,W,1,08,0.9,15.0,M,48.3,M,,*4B
$GPVTG,30.0,T,30.0,M,020.0,N,037.0,K,A*25

$GPRMC,104108.35,A,3358.8930,N,00651.9027,W,020.0,030.0,281025,*0B
$GPGGA,104108.35,3358.8930,N,00651.9027,W,1,08,0.9,15.0,M,48.3,M,,*4F
$GPVTG,30.0,T,30.0,M,020.0,N,037.0,K,A*25

$GPRMC,104109.35,A,3358.8978,N,00651.8993,W,020.0,030.0,281025,*01
$GPGGA,104109.35,3358.8978,N,00651.8993,W,1,08,0.9,15.0,M,48.3,M,,*45
$GPVTG,30.0,T,30.0,M,020.0,N,037.0,K,A*25

$GPRMC,104110.35,A,3358.9027,N,00651.8960,W,020.0,030.0,281025,*07
$GPGGA,104110.35,3358.9027,N,00651.8960,W,1,08,0.9,15.0,M,48.3,M,,*43
$GPVTG,30.0,T,30.0,M,020.0,N,037.0,K,A*25

$GPRMC,104111.35,A,3358.9075,N,00651.8926,W,020.0,030.0,281025,*03
$GPGGA,104111.35,3358.9075,N,00651.8926,W,1,08,0.9,15.0,M,48.3,M,,*47
$GPVTG,30.0,T,30.0,M,020.0,N,037.0,K,A*25

$GPRMC,104112.35,A,3358.9123,N,00651.8893,W,020.0,030.0,281025,*0D
$GPGGA,104112.35,3358.9123,N,00651.8893,W,1,08,0.9,15.0,M,48.3,M,,*49
$GPVTG,30.0,T,30.0,M,020.0,N,037.0,K,A*25

$GPRMC,104113.35,A,3358.9171,N,00651.8860,W,020.0,030.0,281025,*07
$GPGGA,104113.35,3358.9171,N,00651.8860,W,1,08,0.9,15.0,M,48.3,M,,*43
$GPVTG,30.0,T,30.0,M,020.0,N,037.0,K,A*25

$GPRMC,104114.35,A,3358.9219,N,00651.8826,W,020.0,030.0,281025,*0F
$GPGGA,104114.35,3358.9219,N,00651.8826,W,1,08,0.9,15.0,M,48.3,M,,*4B
$GPVTG,30.0,T,30.0,M,020.0,N,037.0,K,A*25

$GPRMC,104115.35,A,3358.9267,N,00651.8793,W,020.0,030.0,281025,*06
$GPGGA,104115.35,3358.9267,N,00651.8793,W,1,08,0.9,15.0,M,48.3,M,,*42
$GPVTG,30.0,T,30.0,M,020.0,N,037.0,K,A*25

$GPRMC,104116.35,A,3358.9315,N,00651.8759,W,020.0,030.0,281025,*07
$GPGGA,104116.35,3358.9315,N,00651.8759,W,1,08,0.9,15.0,M,48.3,M,,*43
$GPVTG,30.0,T,30.0,M,020.0,N,037.0,K,A*25

$GPRMC,104117.35,A,3358.9363,N,00651.8726,W,020.0,030.0,281025,*0F
$GPGGA,104117.35,3358.9363,N,00651.8726,W,1,08,0.9,15.0,M,48.3,M,,*4B
$GPVTG,30.0,T,30.0,M,020.0,N,037.0,K,A*25

$GPRMC,104118.35,A,3358.9411,N,00651.8692,W,020.0,030.0,281025,*0C
$GPGGA,104118.35,3358.9411,N,00651.8692,W,1,08,0.9,15.0,M,48.3,M,,*48
$GPVTG,30.0,T,30.0,M,020.0,N,037.0,K,A*25

$GPRMC,214944.57,A,3358.5324,N,00652.1538,W,020.0,030.0,031125,*07
$GPGGA,214944.57,3358.5324,N,00652.1538,W,1,08,0.9,15.0,M,48.3,M,,*4B
$GPVTG,30.0,T,30.0,M,020.0,N,037.0,K,A*25

$GPRMC,214945.57,A,3358.5372,N,00652.1504,W,020.0,030.0,031125,*0A
$GPGGA,214945.57,3358.5372,N,00652.1504,W,1,08,0.9,15.0,M,48.3,M,,*46
$GPVTG,30.0,T,30.0,M,020.0,N,037.0,K,A*25

$GPRMC,214946.57,A,3358.5421,N,00652.1471,W,020.0,030.0,031125,*0B
$GPGGA,214946.57,3358.5421,N,00652.1471,W,1,08,0.9,15.0,M,48.3,M,,*47
$GPVTG,30.0,T,30.0,M,020.0,N,037.0,K,A*25

$GPRMC,214947.57,A,3358.5469,N,00652.1437,W,020.0,030.0,031125,*04
$GPGGA,214947.57,3358.5469,N,00652.1437,W,1,08,0.9,15.0,M,48.3,M,,*48
$GPVTG,30.0,T,30.0,M,020.0,N,037.0,K,A*25

$GPRMC,214948.57,A,3358.5517,N,00652.1404,W,020.0,030.0,031125,*03
$GPGGA,214948.57,3358.5517,N,00652.1404,W,1,08,0.9,15.0,M,48.3,M,,*4F
$GPVTG,30.0,T,30.0,M,020.0,N,037.0,K,A*25

$GPRMC,214949.57,A,3358.5565,N,00652.1370,W,020.0,030.0,031125,*03
$GPGGA,214949.57,3358.5565,N,00652.1370,W,1,08,0.9,15.0,M,48.3,M,,*4F
$GPVTG,30.0,T,30.0,M,020.0,N,037.0,K,A*25

$GPRMC,214950.57,A,3358.5613,N,00652.1337,W,020.0,030.0,031125,*0A
$GPGGA,214950.57,3358.5613,N,00652.1337,W,1,08,0.9,15.0,M,48.3,M,,*46
$GPVTG,30.0,T,30.0,M,020.0,N,037.0,K,A*25

$GPRMC,214951.57,A,3358.5661,N,00652.1303,W,020.0,030.0,031125,*09
$GPGGA,214951.57,3358.5661,N,00652.1303,W,1,08,0.9,15.0,M,48.3,M,,*45
$GPVTG,30.0,T,30.0,M,020.0,N,037.0,K,A*25

$GPRMC,214952.58,A,3358.5709,N,00652.1270,W,020.0,030.0,031125,*0F
$GPGGA,214952.58,3358.5709,N,00652.1270,W,1,08,0.9,15.0,M,48.3,M,,*43
$GPVTG,30.0,T,30.0,M,020.0,N,037.0,K,A*25

$GPRMC,214953.58,A,3358.5757,N,00652.1236,W,020.0,030.0,031125,*07
$GPGGA,214953.58,3358.5757,N,00652.1236,W,1,08,0.9,15.0,M,48.3,M,,*4B
$GPVTG,30.0,T,30.0,M,020.0,N,037.0,K,A*25

$GPRMC,214954.58,A,3358.5805,N,00652.1203,W,020.0,030.0,031125,*0E
$GPGGA,214954.58,3358.5805,N,00652.1203,W,1,08,0.9,15.0,M,48.3,M,,*42
$GPVTG,30.0,T,30.0,M,020.0,N,037.0,K,A*25

$GPRMC,214955.58,A,3358.5853,N,00652.1169,W,020.0,030.0,031125,*03
$GPGGA,214955.58,3358.5853,N,00652.1169,W,1,08,0.9,15.0,M,48.3,M,,*4F
$GPVTG,30.0,T,30.0,M,020.0,N,037.0,K,A*25

$GPRMC,214956.58,A,3358.5901,N,00652.1136,W,020.0,030.0,031125,*0C
$GPGGA,214956.58,3358.5901,N,00652.1136,W,1,08,0.9,15.0,M,48.3,M,,*40
$GPVTG,30.0,T,30.0,M,020.0,N,037.0,K,A*25

$GPRMC,214957.58,A,3358.5949,N,00652.1102,W,020.0,030.0,031125,*06
$GPGGA,214957.58,3358.5949,N,00652.1102,W,1,08,0.9,15.0,M,48.3,M,,*4A
$GPVTG,30.0,T,30.0,M,020.0,N,037.0,K,A*25

$GPRMC,214958.58,A,3358.5998,N,00652.1069,W,020.0,030.0,031125,*09
$GPGGA,214958.58,3358.5998,N,00652.1069,W,1,08,0.9,15.0,M,48.3,M,,*45
$GPVTG,30.0,T,30.0,M,020.0,N,037.0,K,A*25

$GPRMC,214959.58,A,3358.6046,N,00652.1035,W,020.0,030.0,031125,*08
$GPGGA,214959.58,3358.6046,N,00652.1035,W,1,08,0.9,15.0,M,48.3,M,,*44
$GPVTG,30.0,T,30.0,M,020.0,N,037.0,K,A*25

$GPRMC,215000.58,A,3358.6094,N,00652.1002,W,020.0,030.0,031125,*07
$GPGGA,215000.58,3358.6094,N,00652.1002,W,1,08,0.9,15.0,M,48.3,M,,*4B
$GPVTG,30.0,T,30.0,M,020.0,N,037.0,K,A*25

$GPRMC,215001.58,A,3358.6142,N,00652.0968,W,020.0,030.0,031125,*08
$GPGGA,215001.58,3358.6142,N,00652.0968,W,1,08,0.9,15.0,M,48.3,M,,*44
$GPVTG,30.0,T,30.0,M,020.0,N,037.0,K,A*25

$GPRMC,215002.58,A,3358.6190,N,00652.0935,W,020.0,030.0,031125,*0C
$GPGGA,215002.58,3358.6190,N,00652.0935,W,1,08,0.9,15.0,M,48.3,M,,*40
$GPVTG,30.0,T,30.0,M,020.0,N,037.0,K,A*25

$GPRMC,215003.58,A,3358.6238,N,00652.0902,W,020.0,030.0,031125,*08
$GPGGA,215003.58,3358.6238,N,00652.0902,W,1,08,0.9,15.0,M,48.3,M,,*44
$GPVTG,30.0,T,30.0,M,020.0,N,037.0,K,A*25

$GPRMC,215004.58,A,3358.6286,N,00652.0868,W,020.0,030.0,031125,*07
$GPGGA,215004.58,3358.6286,N,00652.0868,W,1,08,0.9,15.0,M,48.3,M,,*4B
$GPVTG,30.0,T,30.0,M,020.0,N,037.0,K,A*25

$GPRMC,215005.58,A,3358.6334,N,00652.0835,W,020.0,030.0,031125,*06
$GPGGA,215005.58,3358.6334,N,00652.0835,W,1,08,0.9,15.0,M,48.3,M,,*4A
$GPVTG,30.0,T,30.0,M,020.0,N,037.0,K,A*25

$GPRMC,215006.58,A,3358.6382,N,00652.0801,W,020.0,030.0,031125,*0F
$GPGGA,215006.58,3358.6382,N,00652.0801,W,1,08,0.9,15.0,M,48.3,M,,*43
$GPVTG,30.0,T,30.0,M,020.0,N,037.0,K,A*25

$GPRMC,215007.59,A,3358.6430,N,00652.0768,W,020.0,030.0,031125,*01
$GPGGA,215007.59,3358.6430,N,00652.0768,W,1,08,0.9,15.0,M,48.3,M,,*4D
$GPVTG,30.0,T,30.0,M,020.0,N,037.0,K,A*25

$GPRMC,215008.59,A,3358.6478,N,00652.0734,W,020.0,030.0,031125,*0B
$GPGGA,215008.59,3358.6478,N,00652.0734,W,1,08,0.9,15.0,M,48.3,M,,*47
$GPVTG,30.0,T,30.0,M,020.0,N,037.0,K,A*25

$GPRMC,215009.59,A,3358.6526,N,00652.0701,W,020.0,030.0,031125,*06
$GPGGA,215009.59,3358.6526,N,00652.0701,W,1,08,0.9,15.0,M,48.3,M,,*4A
$GPVTG,30.0,T,30.0,M,020.0,N,037.0,K,A*25

$GPRMC,215010.59,A,3358.6574,N,00652.0667,W,020.0,030.0,031125,*08
$GPGGA,215010.59,3358.6574,N,00652.0667,W,1,08,0.9,15.0,M,48.3,M,,*44
$GPVTG,30.0,T,30.0,M,020.0,N,037.0,K,A*25

$GPRMC,215011.59,A,3358.6623,N,00652.0634,W,020.0,030.0,031125,*0E
$GPGGA,215011.59,3358.6623,N,00652.0634,W,1,08,0.9,15.0,M,48.3,M,,*42
$GPVTG,30.0,T,30.0,M,020.0,N,037.0,K,A*25

$GPRMC,215012.59,A,3358.6671,N,00652.0600,W,020.0,030.0,031125,*0D
$GPGGA,215012.59,3358.6671,N,00652.0600,W,1,08,0.9,15.0,M,48.3,M,,*41
$GPVTG,30.0,T,30.0,M,020.0,N,037.0,K,A*25

$GPRMC,215013.59,A,3358.6719,N,00652.0567,W,020.0,030.0,031125,*01
$GPGGA,215013.59,3358.6719,N,00652.0567,W,1,08,0.9,15.0,M,48.3,M,,*4D
$GPVTG,30.0,T,30.0,M,020.0,N,037.0,K,A*25

$GPRMC,215014.59,A,3358.6767,N,00652.0533,W,020.0,030.0,031125,*0E
$GPGGA,215014.59,3358.6767,N,00652.0533,W,1,08,0.9,15.0,M,48.3,M,,*42
$GPVTG,30.0,T,30.0,M,020.0,N,037.0,K,A*25

$GPRMC,215015.59,A,3358.6815,N,00652.0500,W,020.0,030.0,031125,*05
$GPGGA,215015.59,3358.6815,N,00652.0500,W,1,08,0.9,15.0,M,48.3,M,,*49
$GPVTG,30.0,T,30.0,M,020.0,N,037.0,K,A*25

$GPRMC,215016.59,A,3358.6863,N,00652.0466,W,020.0,030.0,031125,*06
$GPGGA,215016.59,3358.6863,N,00652.0466,W,1,08,0.9,15.0,M,48.3,M,,*4A
$GPVTG,30.0,T,30.0,M,020.0,N,037.0,K,A*25

$GPRMC,215017.59,A,3358.6911,N,00652.0433,W,020.0,030.0,031125,*03
$GPGGA,215017.59,3358.6911,N,00652.0433,W,1,08,0.9,15.0,M,48.3,M,,*4F
$GPVTG,30.0,T,30.0,M,020.0,N,037.0,K,A*25

$GPRMC,215018.59,A,3358.6959,N,00652.0399,W,020.0,030.0,031125,*07
$GPGGA,215018.59,3358.6959,N,00652.0399,W,1,08,0.9,15.0,M,48.3,M,,*4B
$GPVTG,30.0,T,30.0,M,020.0,N,037.0,K,A*25

$GPRMC,215019.59,A,3358.7007,N,00652.0366,W,020.0,030.0,031125,*05
$GPGGA,215019.59,3358.7007,N,00652.0366,W,1,08,0.9,15.0,M,48.3,M,,*49
$GPVTG,30.0,T,30.0,M,020.0,N,037.0,K,A*25

$GPRMC,215020.59,A,3358.7055,N,00652.0332,W,020.0,030.0,031125,*09
$GPGGA,215020.59,3358.7055,N,00652.0332,W,1,08,0.9,15.0,M,48.3,M,,*45
$GPVTG,30.0,T,30.0,M,020.0,N,037.0,K,A*25

$GPRMC,215021.59,A,3358.7103,N,00652.0299,W,020.0,030.0,031125,*0A
$GPGGA,215021.59,3358.7103,N,00652.0299,W,1,08,0.9,15.0,M,48.3,M,,*46
$GPVTG,30.0,T,30.0,M,020.0,N,037.0,K,A*25

$GPRMC,215022.59,A,3358.7151,N,00652.0265,W,020.0,030.0,031125,*0D
$GPGGA,215022.59,3358.7151,N,00652.0265,W,1,08,0.9,15.0,M,48.3,M,,*41
$GPVTG,30.0,T,30.0,M,020.0,N,037.0,K,A*25

$GPRMC,215023.59,A,3358.7200,N,00652.0232,W,020.0,030.0,031125,*09
$GPGGA,215023.59,3358.7200,N,00652.0232,W,1,08,0.9,15.0,M,48.3,M,,*45
$GPVTG,30.0,T,30.0,M,020.0,N,037.0,K,A*25

$GPRMC,215024.59,A,3358.7248,N,00652.0199,W,020.0,030.0,031125,*00
$GPGGA,215024.59,3358.7248,N,00652.0199,W,1,08,0.9,15.0,M,48.3,M,,*4C
$GPVTG,30.0,T,30.0,M,020.0,N,037.0,K,A*25

$GPRMC,215025.59,A,3358.7296,N,00652.0165,W,020.0,030.0,031125,*01
$GPGGA,215025.59,3358.7296,N,00652.0165,W,1,08,0.9,15.0,M,48.3,M,,*4D
$GPVTG,30.0,T,30.0,M,020.0,N,037.0,K,A*25

$GPRMC,215026.59,A,3358.7344,N,00652.0132,W,020.0,030.0,031125,*0E
$GPGGA,215026.59,3358.7344,N,00652.0132,W,1,08,0.9,15.0,M,48.3,M,,*42
$GPVTG,30.0,T,30.0,M,020.0,N,037.0,K,A*25

$GPRMC,215027.59,A,3358.7392,N,00652.0098,W,020.0,030.0,031125,*05
$GPGGA,215027.59,3358.7392,N,00652.0098,W,1,08,0.9,15.0,M,48.3,M,,*49
$GPVTG,30.0,T,30.0,M,020.0,N,037.0,K,A*25

$GPRMC,215028.60,A,3358.7440,N,00652.0065,W,020.0,030.0,031125,*0A
$GPGGA,215028.60,3358.7440,N,00652.0065,W,1,08,0.9,15.0,M,48.3,M,,*46
$GPVTG,30.0,T,30.0,M,020.0,N,037.0,K,A*25

$GPRMC,215029.60,A,3358.7488,N,00652.0031,W,020.0,030.0,031125,*0E
$GPGGA,215029.60,3358.7488,N,00652.0031,W,1,08,0.9,15.0,M,48.3,M,,*42
$GPVTG,30.0,T,30.0,M,020.0,N,037.0,K,A*25

$GPRMC,215030.60,A,3358.7536,N,00651.9998,W,020.0,030.0,031125,*02
$GPGGA,215030.60,3358.7536,N,00651.9998,W,1,08,0.9,15.0,M,48.3,M,,*4E
$GPVTG,30.0,T,30.0,M,020.0,N,037.0,K,A*25

$GPRMC,215031.60,A,3358.7584,N,00651.9964,W,020.0,030.0,031125,*09
$GPGGA,215031.60,3358.7584,N,00651.9964,W,1,08,0.9,15.0,M,48.3,M,,*45
$GPVTG,30.0,T,30.0,M,020.0,N,037.0,K,A*25

$GPRMC,215032.60,A,3358.7632,N,00651.9931,W,020.0,030.0,031125,*04
$GPGGA,215032.60,3358.7632,N,00651.9931,W,1,08,0.9,15.0,M,48.3,M,,*48
$GPVTG,30.0,T,30.0,M,020.0,N,037.0,K,A*25

$GPRMC,215033.60,A,3358.7680,N,00651.9897,W,020.0,030.0,031125,*01
$GPGGA,215033.60,3358.7680,N,00651.9897,W,1,08,0.9,15.0,M,48.3,M,,*4D
$GPVTG,30.0,T,30.0,M,020.0,N,037.0,K,A*25

$GPRMC,215034.60,A,3358.7728,N,00651.9864,W,020.0,030.0,031125,*09
$GPGGA,215034.60,3358.7728,N,00651.9864,W,1,08,0.9,15.0,M,48.3,M,,*45
$GPVTG,30.0,T,30.0,M,020.0,N,037.0,K,A*25

$GPRMC,215035.60,A,3358.7776,N,00651.9830,W,020.0,030.0,031125,*02
$GPGGA,215035.60,3358.7776,N,00651.9830,W,1,08,0.9,15.0,M,48.3,M,,*4E
$GPVTG,30.0,T,30.0,M,020.0,N,037.0,K,A*25

$GPRMC,215036.60,A,3358.7825,N,00651.9797,W,020.0,030.0,031125,*0A
$GPGGA,215036.60,3358.7825,N,00651.9797,W,1,08,0.9,15.0,M,48.3,M,,*46
$GPVTG,30.0,T,30.0,M,020.0,N,037.0,K,A*25

$GPRMC,215037.60,A,3358.7873,N,00651.9763,W,020.0,030.0,031125,*03
$GPGGA,215037.60,3358.7873,N,00651.9763,W,1,08,0.9,15.0,M,48.3,M,,*4F
$GPVTG,30.0,T,30.0,M,020.0,N,037.0,K,A*25

$GPRMC,215038.60,A,3358.7921,N,00651.9730,W,020.0,030.0,031125,*0C
$GPGGA,215038.60,3358.7921,N,00651.9730,W,1,08,0.9,15.0,M,48.3,M,,*40
$GPVTG,30.0,T,30.0,M,020.0,N,037.0,K,A*25

$GPRMC,215039.60,A,3358.7969,N,00651.9696,W,020.0,030.0,031125,*0C
$GPGGA,215039.60,3358.7969,N,00651.9696,W,1,08,0.9,15.0,M,48.3,M,,*40
$GPVTG,30.0,T,30.0,M,020.0,N,037.0,K,A*25

$GPRMC,215040.60,A,3358.8017,N,00651.9663,W,020.0,030.0,031125,*07
$GPGGA,215040.60,3358.8017,N,00651.9663,W,1,08,0.9,15.0,M,48.3,M,,*4B
$GPVTG,30.0,T,30.0,M,020.0,N,037.0,K,A*25

$GPRMC,215041.60,A,3358.8065,N,00651.9629,W,020.0,030.0,031125,*0D
$GPGGA,215041.60,3358.8065,N,00651.9629,W,1,08,0.9,15.0,M,48.3,M,,*41
$GPVTG,30.0,T,30.0,M,020.0,N,037.0,K,A*25

$GPRMC,215042.60,A,3358.8113,N,00651.9596,W,020.0,030.0,031125,*09
$GPGGA,215042.60,3358.8113,N,00651.9596,W,1,08,0.9,15.0,M,48.3,M,,*45
$GPVTG,30.0,T,30.0,M,020.0,N,037.0,K,A*25

$GPRMC,215043.60,A,3358.8161,N,00651.9563,W,020.0,030.0,031125,*07
$GPGGA,215043.60,3358.8161,N,00651.9563,W,1,08,0.9,15.0,M,48.3,M,,*4B
$GPVTG,30.0,T,30.0,M,020.0,N,037.0,K,A*25

$GPRMC,215044.60,A,3358.8209,N,00651.9529,W,020.0,030.0,031125,*03
$GPGGA,215044.60,3358.8209,N,00651.9529,W,1,08,0.9,15.0,M,48.3,M,,*4F
$GPVTG,30.0,T,30.0,M,020.0,N,037.0,K,A*25

$GPRMC,215045.60,A,3358.8257,N,00651.9496,W,020.0,030.0,031125,*0C
$GPGGA,215045.60,3358.8257,N,00651.9496,W,1,08,0.9,15.0,M,48.3,M,,*40
$GPVTG,30.0,T,30.0,M,020.0,N,037.0,K,A*25

$GPRMC,215046.60,A,3358.8305,N,00651.9462,W,020.0,030.0,031125,*02
$GPGGA,215046.60,3358.8305,N,00651.9462,W,1,08,0.9,15.0,M,48.3,M,,*4E
$GPVTG,30.0,T,30.0,M,020.0,N,037.0,K,A*25

$GPRMC,215047.60,A,3358.8353,N,00651.9429,W,020.0,030.0,031125,*0F
$GPGGA,215047.60,3358.8353,N,00651.9429,W,1,08,0.9,15.0,M,48.3,M,,*43
$GPVTG,30.0,T,30.0,M,020.0,N,037.0,K,A*25

$GPRMC,215048.60,A,3358.8402,N,00651.9395,W,020.0,030.0,031125,*03
$GPGGA,215048.60,3358.8402,N,00651.9395,W,1,08,0.9,15.0,M,48.3,M,,*4F
$GPVTG,30.0,T,30.0,M,020.0,N,037.0,K,A*25

$GPRMC,215049.61,A,3358.8450,N,00651.9362,W,020.0,030.0,031125,*0C
$GPGGA,215049.61,3358.8450,N,00651.9362,W,1,08,0.9,15.0,M,48.3,M,,*40
$GPVTG,30.0,T,30.0,M,020.0,N,037.0,K,A*25

$GPRMC,215050.61,A,3358.8498,N,00651.9328,W,020.0,030.0,031125,*0E
$GPGGA,215050.61,3358.8498,N,00651.9328,W,1,08,0.9,15.0,M,48.3,M,,*42
$GPVTG,30.0,T,30.0,M,020.0,N,037.0,K,A*25

$GPRMC,215051.61,A,3358.8546,N,00651.9295,W,020.0,030.0,031125,*0A
$GPGGA,215051.61,3358.8546,N,00651.9295,W,1,08,0.9,15.0,M,48.3,M,,*46
$GPVTG,30.0,T,30.0,M,020.0,N,037.0,K,A*25

$GPRMC,215052.61,A,3358.8594,N,00651.9261,W,020.0,030.0,031125,*0D
$GPGGA,215052.61,3358.8594,N,00651.9261,W,1,08,0.9,15.0,M,48.3,M,,*41
$GPVTG,30.0,T,30.0,M,020.0,N,037.0,K,A*25

$GPRMC,215053.61,A,3358.8642,N,00651.9228,W,020.0,030.0,031125,*09
$GPGGA,215053.61,3358.8642,N,00651.9228,W,1,08,0.9,15.0,M,48.3,M,,*45
$GPVTG,30.0,T,30.0,M,020.0,N,037.0,K,A*25

$GPRMC,215054.61,A,3358.8690,N,00651.9194,W,020.0,030.0,031125,*05
$GPGGA,215054.61,3358.8690,N,00651.9194,W,1,08,0.9,15.0,M,48.3,M,,*49
$GPVTG,30.0,T,30.0,M,020.0,N,037.0,K,A*25

$GPRMC,215055.61,A,3358.8738,N,00651.9161,W,020.0,030.0,031125,*0D
$GPGGA,215055.61,3358.8738,N,00651.9161,W,1,08,0.9,15.0,M,48.3,M,,*41
$GPVTG,30.0,T,30.0,M,020.0,N,037.0,K,A*25

$GPRMC,215056.61,A,3358.8786,N,00651.9127,W,020.0,030.0,031125,*09
$GPGGA,215056.61,3358.8786,N,00651.9127,W,1,08,0.9,15.0,M,48.3,M,,*45
$GPVTG,30.0,T,30.0,M,020.0,N,037.0,K,A*25

$GPRMC,215057.61,A,3358.8834,N,00651.9094,W,020.0,030.0,031125,*07
$GPGGA,215057.61,3358.8834,N,00651.9094,W,1,08,0.9,15.0,M,48.3,M,,*4B
$GPVTG,30.0,T,30.0,M,020.0,N,037.0,K,A*25

$GPRMC,215058.61,A,3358.8882,N,00651.9060,W,020.0,030.0,031125,*0E
$GPGGA,215058.61,3358.8882,N,00651.9060,W,1,08,0.9,15.0,M,48.3,M,,*42
$GPVTG,30.0,T,30.0,M,020.0,N,037.0,K,A*25

$GPRMC,215059.61,A,3358.8930,N,00651.9027,W,020.0,030.0,031125,*04
$GPGGA,215059.61,3358.8930,N,00651.9027,W,1,08,0.9,15.0,M,48.3,M,,*48
$GPVTG,30.0,T,30.0,M,020.0,N,037.0,K,A*25

$GPRMC,215100.61,A,3358.8978,N,00651.8993,W,020.0,030.0,031125,*02
$GPGGA,215100.61,3358.8978,N,00651.8993,W,1,08,0.9,15.0,M,48.3,M,,*4E
$GPVTG,30.0,T,30.0,M,020.0,N,037.0,K,A*25

$GPRMC,215101.61,A,3358.9027,N,00651.8960,W,020.0,030.0,031125,*0D
$GPGGA,215101.61,3358.9027,N,00651.8960,W,1,08,0.9,15.0,M,48.3,M,,*41
$GPVTG,30.0,T,30.0,M,020.0,N,037.0,K,A*25

$GPRMC,215102.61,A,3358.9075,N,00651.8926,W,020.0,030.0,031125,*0B
$GPGGA,215102.61,3358.9075,N,00651.8926,W,1,08,0.9,15.0,M,48.3,M,,*47
$GPVTG,30.0,T,30.0,M,020.0,N,037.0,K,A*25

$GPRMC,215103.61,A,3358.9123,N,00651.8893,W,020.0,030.0,031125,*07
$GPGGA,215103.61,3358.9123,N,00651.8893,W,1,08,0.9,15.0,M,48.3,M,,*4B
$GPVTG,30.0,T,30.0,M,020.0,N,037.0,K,A*25

$GPRMC,215104.62,A,3358.9171,N,00651.8860,W,020.0,030.0,031125,*08
$GPGGA,215104.62,3358.9171,N,00651.8860,W,1,08,0.9,15.0,M,48.3,M,,*44
$GPVTG,30.0,T,30.0,M,020.0,N,037.0,K,A*25

$GPRMC,215105.62,A,3358.9219,N,00651.8826,W,020.0,030.0,031125,*06
$GPGGA,215105.62,3358.9219,N,00651.8826,W,1,08,0.9,15.0,M,48.3,M,,*4A
$GPVTG,30.0,T,30.0,M,020.0,N,037.0,K,A*25

$GPRMC,215106.62,A,3358.9267,N,00651.8793,W,020.0,030.0,031125,*0D
$GPGGA,215106.62,3358.9267,N,00651.8793,W,1,08,0.9,15.0,M,48.3,M,,*41
$GPVTG,30.0,T,30.0,M,020.0,N,037.0,K,A*25

$GPRMC,215107.62,A,3358.9315,N,00651.8759,W,020.0,030.0,031125,*0E
$GPGGA,215107.62,3358.9315,N,00651.8759,W,1,08,0.9,15.0,M,48.3,M,,*42
$GPVTG,30.0,T,30.0,M,020.0,N,037.0,K,A*25

$GPRMC,215108.62,A,3358.9363,N,00651.8726,W,020.0,030.0,031125,*08
$GPGGA,215108.62,3358.9363,N,00651.8726,W,1,08,0.9,15.0,M,48.3,M,,*44
$GPVTG,30.0,T,30.0,M,020.0,N,037.0,K,A*25

$GPRMC,215109.62,A,3358.9411,N,00651.8692,W,020.0,030.0,031125,*05
$GPGGA,215109.62,3358.9411,N,00651.8692,W,1,08,0.9,15.0,M,48.3,M,,*49
$GPVTG,30.0,T,30.0,M,020.0,N,037.0,K,A*25

$GPRMC,215110.62,A,3358.9459,N,00651.8659,W,020.0,030.0,031125,*06
$GPGGA,215110.62,3358.9459,N,00651.8659,W,1,08,0.9,15.0,M,48.3,M,,*4A
$GPVTG,30.0,T,30.0,M,020.0,N,037.0,K,A*25

$GPRMC,215111.62,A,3358.9507,N,00651.8625,W,020.0,030.0,031125,*06
$GPGGA,215111.62,3358.9507,N,00651.8625,W,1,08,0.9,15.0,M,48.3,M,,*4A
$GPVTG,30.0,T,30.0,M,020.0,N,037.0,K,A*25

$GPRMC,215112.62,A,3358.9555,N,00651.8592,W,020.0,030.0,031125,*0D
$GPGGA,215112.62,3358.9555,N,00651.8592,W,1,08,0.9,15.0,M,48.3,M,,*41
$GPVTG,30.0,T,30.0,M,020.0,N,037.0,K,A*25

$GPRMC,215113.63,A,3358.9604,N,00651.8558,W,020.0,030.0,031125,*0C
$GPGGA,215113.63,3358.9604,N,00651.8558,W,1,08,0.9,15.0,M,48.3,M,,*40
$GPVTG,30.0,T,30.0,M,020.0,N,037.0,K,A*25

$GPRMC,215114.63,A,3358.9652,N,00651.8525,W,020.0,030.0,031125,*02
$GPGGA,215114.63,3358.9652,N,00651.8525,W,1,08,0.9,15.0,M,48.3,M,,*4E
$GPVTG,30.0,T,30.0,M,020.0,N,037.0,K,A*25

$GPRMC,215115.65,A,3358.9700,N,00651.8491,W,020.0,030.0,031125,*0D
$GPGGA,215115.65,3358.9700,N,00651.8491,W,1,08,0.9,15.0,M,48.3,M,,*41
$GPVTG,30.0,T,30.0,M,020.0,N,037.0,K,A*25

$GPRMC,215116.65,A,3358.9748,N,00651.8458,W,020.0,030.0,031125,*07
$GPGGA,215116.65,3358.9748,N,00651.8458,W,1,08,0.9,15.0,M,48.3,M,,*4B
$GPVTG,30.0,T,30.0,M,020.0,N,037.0,K,A*25

$GPRMC,215117.66,A,3358.9796,N,00651.8424,W,020.0,030.0,031125,*0D
$GPGGA,215117.66,3358.9796,N,00651.8424,W,1,08,0.9,15.0,M,48.3,M,,*41
$GPVTG,30.0,T,30.0,M,020.0,N,037.0,K,A*25

$GPRMC,215118.66,A,3358.9844,N,00651.8391,W,020.0,030.0,031125,*0B
$GPGGA,215118.66,3358.9844,N,00651.8391,W,1,08,0.9,15.0,M,48.3,M,,*47
$GPVTG,30.0,T,30.0,M,020.0,N,037.0,K,A*25

$GPRMC,215119.66,A,3358.9892,N,00651.8357,W,020.0,030.0,031125,*0B
$GPGGA,215119.66,3358.9892,N,00651.8357,W,1,08,0.9,15.0,M,48.3,M,,*47
$GPVTG,30.0,T,30.0,M,020.0,N,037.0,K,A*25

$GPRMC,215120.66,A,3358.9940,N,00651.8324,W,020.0,030.0,031125,*0B
$GPGGA,215120.66,3358.9940,N,00651.8324,W,1,08,0.9,15.0,M,48.3,M,,*47
$GPVTG,30.0,T,30.0,M,020.0,N,037.0,K,A*25

$GPRMC,215121.66,A,3358.9988,N,00651.8290,W,020.0,030.0,031125,*00
$GPGGA,215121.66,3358.9988,N,00651.8290,W,1,08,0.9,15.0,M,48.3,M,,*4C
$GPVTG,30.0,T,30.0,M,020.0,N,037.0,K,A*25

$GPRMC,215122.66,A,3359.0036,N,00651.8257,W,020.0,030.0,031125,*0C
$GPGGA,215122.66,3359.0036,N,00651.8257,W,1,08,0.9,15.0,M,48.3,M,,*40
$GPVTG,30.0,T,30.0,M,020.0,N,037.0,K,A*25

$GPRMC,215123.67,A,3359.0084,N,00651.8223,W,020.0,030.0,031125,*06
$GPGGA,215123.67,3359.0084,N,00651.8223,W,1,08,0.9,15.0,M,48.3,M,,*4A
$GPVTG,30.0,T,30.0,M,020.0,N,037.0,K,A*25

$GPRMC,215124.67,A,3359.0132,N,00651.8190,W,020.0,030.0,031125,*06
$GPGGA,215124.67,3359.0132,N,00651.8190,W,1,08,0.9,15.0,M,48.3,M,,*4A
$GPVTG,30.0,T,30.0,M,020.0,N,037.0,K,A*25

$GPRMC,215125.67,A,3359.0180,N,00651.8157,W,020.0,030.0,031125,*05
$GPGGA,215125.67,3359.0180,N,00651.8157,W,1,08,0.9,15.0,M,48.3,M,,*49
$GPVTG,30.0,T,30.0,M,020.0,N,037.0,K,A*25

$GPRMC,215126.67,A,3359.0229,N,00651.8123,W,020.0,030.0,031125,*05
$GPGGA,215126.67,3359.0229,N,00651.8123,W,1,08,0.9,15.0,M,48.3,M,,*49
$GPVTG,30.0,T,30.0,M,020.0,N,037.0,K,A*25

$GPRMC,215127.67,A,3359.0277,N,00651.8090,W,020.0,030.0,031125,*06
$GPGGA,215127.67,3359.0277,N,00651.8090,W,1,08,0.9,15.0,M,48.3,M,,*4A
$GPVTG,30.0,T,30.0,M,020.0,N,037.0,K,A*25

$GPRMC,215128.68,A,3359.0325,N,00651.8056,W,020.0,030.0,031125,*0A
$GPGGA,215128.68,3359.0325,N,00651.8056,W,1,08,0.9,15.0,M,48.3,M,,*46
$GPVTG,30.0,T,30.0,M,020.0,N,037.0,K,A*25

$GPRMC,215129.68,A,3359.0373,N,00651.8023,W,020.0,030.0,031125,*0A
$GPGGA,215129.68,3359.0373,N,00651.8023,W,1,08,0.9,15.0,M,48.3,M,,*46
$GPVTG,30.0,T,30.0,M,020.0,N,037.0,K,A*25

$GPRMC,215130.68,A,3359.0421,N,00651.7989,W,020.0,030.0,031125,*04
$GPGGA,215130.68,3359.0421,N,00651.7989,W,1,08,0.9,15.0,M,48.3,M,,*48
$GPVTG,30.0,T,30.0,M,020.0,N,037.0,K,A*25

$GPRMC,215131.68,A,3359.0469,N,00651.7956,W,020.0,030.0,031125,*0B
$GPGGA,215131.68,3359.0469,N,00651.7956,W,1,08,0.9,15.0,M,48.3,M,,*47
$GPVTG,30.0,T,30.0,M,020.0,N,037.0,K,A*25

$GPRMC,215132.68,A,3359.0517,N,00651.7922,W,020.0,030.0,031125,*03
$GPGGA,215132.68,3359.0517,N,00651.7922,W,1,08,0.9,15.0,M,48.3,M,,*4F
$GPVTG,30.0,T,30.0,M,020.0,N,037.0,K,A*25

$GPRMC,215133.68,A,3359.0565,N,00651.7889,W,020.0,030.0,031125,*07
$GPGGA,215133.68,3359.0565,N,00651.7889,W,1,08,0.9,15.0,M,48.3,M,,*4B
$GPVTG,30.0,T,30.0,M,020.0,N,037.0,K,A*25

$GPRMC,215134.69,A,3359.0613,N,00651.7855,W,020.0,030.0,031125,*02
$GPGGA,215134.69,3359.0613,N,00651.7855,W,1,08,0.9,15.0,M,48.3,M,,*4E
$GPVTG,30.0,T,30.0,M,020.0,N,037.0,K,A*25

$GPRMC,215135.69,A,3359.0661,N,00651.7822,W,020.0,030.0,031125,*06
$GPGGA,215135.69,3359.0661,N,00651.7822,W,1,08,0.9,15.0,M,48.3,M,,*4A
$GPVTG,30.0,T,30.0,M,020.0,N,037.0,K,A*25

$GPRMC,215136.69,A,3359.0709,N,00651.7788,W,020.0,030.0,031125,*05
$GPGGA,215136.69,3359.0709,N,00651.7788,W,1,08,0.9,15.0,M,48.3,M,,*49
$GPVTG,30.0,T,30.0,M,020.0,N,037.0,K,A*25

$GPRMC,215137.70,A,3359.0757,N,00651.7755,W,020.0,030.0,031125,*07
$GPGGA,215137.70,3359.0757,N,00651.7755,W,1,08,0.9,15.0,M,48.3,M,,*4B
$GPVTG,30.0,T,30.0,M,020.0,N,037.0,K,A*25

$GPRMC,215138.70,A,3359.0806,N,00651.7721,W,020.0,030.0,031125,*00
$GPGGA,215138.70,3359.0806,N,00651.7721,W,1,08,0.9,15.0,M,48.3,M,,*4C
$GPVTG,30.0,T,30.0,M,020.0,N,037.0,K,A*25

$GPRMC,215139.70,A,3359.0854,N,00651.7688,W,020.0,030.0,031125,*04
$GPGGA,215139.70,3359.0854,N,00651.7688,W,1,08,0.9,15.0,M,48.3,M,,*48
$GPVTG,30.0,T,30.0,M,020.0,N,037.0,K,A*25

$GPRMC,215140.71,A,3359.0902,N,00651.7654,W,020.0,030.0,031125,*08
$GPGGA,215140.71,3359.0902,N,00651.7654,W,1,08,0.9,15.0,M,48.3,M,,*44
$GPVTG,30.0,T,30.0,M,020.0,N,037.0,K,A*25

$GPRMC,215141.71,A,3359.0950,N,00651.7621,W,020.0,030.0,031125,*0C
$GPGGA,215141.71,3359.0950,N,00651.7621,W,1,08,0.9,15.0,M,48.3,M,,*40
$GPVTG,30.0,T,30.0,M,020.0,N,037.0,K,A*25

$GPRMC,215142.71,A,3359.0998,N,00651.7587,W,020.0,030.0,031125,*04
$GPGGA,215142.71,3359.0998,N,00651.7587,W,1,08,0.9,15.0,M,48.3,M,,*48
$GPVTG,30.0,T,30.0,M,020.0,N,037.0,K,A*25

$GPRMC,215143.72,A,3359.1046,N,00651.7554,W,020.0,030.0,031125,*03
$GPGGA,215143.72,3359.1046,N,00651.7554,W,1,08,0.9,15.0,M,48.3,M,,*4F
$GPVTG,30.0,T,30.0,M,020.0,N,037.0,K,A*25

$GPRMC,215144.72,A,3359.1094,N,00651.7520,W,020.0,030.0,031125,*08
$GPGGA,215144.72,3359.1094,N,00651.7520,W,1,08,0.9,15.0,M,48.3,M,,*44
$GPVTG,30.0,T,30.0,M,020.0,N,037.0,K,A*25

$GPRMC,215145.72,A,3359.1142,N,00651.7487,W,020.0,030.0,031125,*0F
$GPGGA,215145.72,3359.1142,N,00651.7487,W,1,08,0.9,15.0,M,48.3,M,,*43
$GPVTG,30.0,T,30.0,M,020.0,N,037.0,K,A*25

$GPRMC,215146.72,A,3359.1190,N,00651.7453,W,020.0,030.0,031125,*0A
$GPGGA,215146.72,3359.1190,N,00651.7453,W,1,08,0.9,15.0,M,48.3,M,,*46
$GPVTG,30.0,T,30.0,M,020.0,N,037.0,K,A*25

$GPRMC,215147.72,A,3359.1238,N,00651.7420,W,020.0,030.0,031125,*0E
$GPGGA,215147.72,3359.1238,N,00651.7420,W,1,08,0.9,15.0,M,48.3,M,,*42
$GPVTG,30.0,T,30.0,M,020.0,N,037.0,K,A*25

$GPRMC,215148.72,A,3359.1286,N,00651.7387,W,020.0,030.0,031125,*0E
$GPGGA,215148.72,3359.1286,N,00651.7387,W,1,08,0.9,15.0,M,48.3,M,,*42
$GPVTG,30.0,T,30.0,M,020.0,N,037.0,K,A*25

$GPRMC,215149.72,A,3359.1334,N,00651.7353,W,020.0,030.0,031125,*0E
$GPGGA,215149.72,3359.1334,N,00651.7353,W,1,08,0.9,15.0,M,48.3,M,,*42
$GPVTG,30.0,T,30.0,M,020.0,N,037.0,K,A*25

$GPRMC,215150.74,A,3359.1382,N,00651.7320,W,020.0,030.0,031125,*09
$GPGGA,215150.74,3359.1382,N,00651.7320,W,1,08,0.9,15.0,M,48.3,M,,*45
$GPVTG,30.0,T,30.0,M,020.0,N,037.0,K,A*25

$GPRMC,215151.75,A,3359.1431,N,00651.7286,W,020.0,030.0,031125,*0B
$GPGGA,215151.75,3359.1431,N,00651.7286,W,1,08,0.9,15.0,M,48.3,M,,*47
$GPVTG,30.0,T,30.0,M,020.0,N,037.0,K,A*25

$GPRMC,215152.75,A,3359.1479,N,00651.7253,W,020.0,030.0,031125,*0C
$GPGGA,215152.75,3359.1479,N,00651.7253,W,1,08,0.9,15.0,M,48.3,M,,*40
$GPVTG,30.0,T,30.0,M,020.0,N,037.0,K,A*25

$GPRMC,215153.76,A,3359.1527,N,00651.7219,W,020.0,030.0,031125,*0A
$GPGGA,215153.76,3359.1527,N,00651.7219,W,1,08,0.9,15.0,M,48.3,M,,*46
$GPVTG,30.0,T,30.0,M,020.0,N,037.0,K,A*25

$GPRMC,215154.77,A,3359.1575,N,00651.7186,W,020.0,030.0,031125,*0E
$GPGGA,215154.77,3359.1575,N,00651.7186,W,1,08,0.9,15.0,M,48.3,M,,*42
$GPVTG,30.0,T,30.0,M,020.0,N,037.0,K,A*25

$GPRMC,215155.77,A,3359.1623,N,00651.7152,W,020.0,030.0,031125,*06
$GPGGA,215155.77,3359.1623,N,00651.7152,W,1,08,0.9,15.0,M,48.3,M,,*4A
$GPVTG,30.0,T,30.0,M,020.0,N,037.0,K,A*25

$GPRMC,215156.80,A,3359.1671,N,00651.7119,W,020.0,030.0,031125,*05
$GPGGA,215156.80,3359.1671,N,00651.7119,W,1,08,0.9,15.0,M,48.3,M,,*49
$GPVTG,30.0,T,30.0,M,020.0,N,037.0,K,A*25

$GPRMC,215157.81,A,3359.1719,N,00651.7085,W,020.0,030.0,031125,*0E
$GPGGA,215157.81,3359.1719,N,00651.7085,W,1,08,0.9,15.0,M,48.3,M,,*42
$GPVTG,30.0,T,30.0,M,020.0,N,037.0,K,A*25

$GPRMC,215159.08,A,3359.1767,N,00651.7052,W,020.0,030.0,031125,*02
$GPGGA,215159.08,3359.1767,N,00651.7052,W,1,08,0.9,15.0,M,48.3,M,,*4E
$GPVTG,30.0,T,30.0,M,020.0,N,037.0,K,A*25

$GPRMC,215200.08,A,3359.1815,N,00651.7018,W,020.0,030.0,031125,*09
$GPGGA,215200.08,3359.1815,N,00651.7018,W,1,08,0.9,15.0,M,48.3,M,,*45
$GPVTG,30.0,T,30.0,M,020.0,N,037.0,K,A*25

$GPRMC,215201.09,A,3359.1863,N,00651.6985,W,020.0,030.0,031125,*04
$GPGGA,215201.09,3359.1863,N,00651.6985,W,1,08,0.9,15.0,M,48.3,M,,*48
$GPVTG,30.0,T,30.0,M,020.0,N,037.0,K,A*25

$GPRMC,215202.09,A,3359.1911,N,00651.6951,W,020.0,030.0,031125,*0A
$GPGGA,215202.09,3359.1911,N,00651.6951,W,1,08,0.9,15.0,M,48.3,M,,*46
$GPVTG,30.0,T,30.0,M,020.0,N,037.0,K,A*25

$GPRMC,215203.09,A,3359.1959,N,00651.6918,W,020.0,030.0,031125,*0A
$GPGGA,215203.09,3359.1959,N,00651.6918,W,1,08,0.9,15.0,M,48.3,M,,*46
$GPVTG,30.0,T,30.0,M,020.0,N,037.0,K,A*25

$GPRMC,215204.11,A,3359.2008,N,00651.6884,W,020.0,030.0,031125,*0E
$GPGGA,215204.11,3359.2008,N,00651.6884,W,1,08,0.9,15.0,M,48.3,M,,*42
$GPVTG,30.0,T,30.0,M,020.0,N,037.0,K,A*25

$GPRMC,215205.11,A,3359.2056,N,00651.6851,W,020.0,030.0,031125,*0C
$GPGGA,215205.11,3359.2056,N,00651.6851,W,1,08,0.9,15.0,M,48.3,M,,*40
$GPVTG,30.0,T,30.0,M,020.0,N,037.0,K,A*25

$GPRMC,215206.11,A,3359.2104,N,00651.6817,W,020.0,030.0,031125,*0B
$GPGGA,215206.11,3359.2104,N,00651.6817,W,1,08,0.9,15.0,M,48.3,M,,*47
$GPVTG,30.0,T,30.0,M,020.0,N,037.0,K,A*25

$GPRMC,215207.12,A,3359.2152,N,00651.6784,W,020.0,030.0,031125,*0F
$GPGGA,215207.12,3359.2152,N,00651.6784,W,1,08,0.9,15.0,M,48.3,M,,*43
$GPVTG,30.0,T,30.0,M,020.0,N,037.0,K,A*25

$GPRMC,215208.12,A,3359.2200,N,00651.6750,W,020.0,030.0,031125,*0D
$GPGGA,215208.12,3359.2200,N,00651.6750,W,1,08,0.9,15.0,M,48.3,M,,*41
$GPVTG,30.0,T,30.0,M,020.0,N,037.0,K,A*25

$GPRMC,215209.13,A,3359.2248,N,00651.6717,W,020.0,030.0,031125,*02
$GPGGA,215209.13,3359.2248,N,00651.6717,W,1,08,0.9,15.0,M,48.3,M,,*4E
$GPVTG,30.0,T,30.0,M,020.0,N,037.0,K,A*25

$GPRMC,215210.14,A,3359.2296,N,00651.6683,W,020.0,030.0,031125,*02
$GPGGA,215210.14,3359.2296,N,00651.6683,W,1,08,0.9,15.0,M,48.3,M,,*4E
$GPVTG,30.0,T,30.0,M,020.0,N,037.0,K,A*25

$GPRMC,215211.14,A,3359.2344,N,00651.6650,W,020.0,030.0,031125,*03
$GPGGA,215211.14,3359.2344,N,00651.6650,W,1,08,0.9,15.0,M,48.3,M,,*4F
$GPVTG,30.0,T,30.0,M,020.0,N,037.0,K,A*25

$GPRMC,215212.14,A,3359.2392,N,00651.6617,W,020.0,030.0,031125,*08
$GPGGA,215212.14,3359.2392,N,00651.6617,W,1,08,0.9,15.0,M,48.3,M,,*44
$GPVTG,30.0,T,30.0,M,020.0,N,037.0,K,A*25

$GPRMC,215213.14,A,3359.2440,N,00651.6583,W,020.0,030.0,031125,*0F
$GPGGA,215213.14,3359.2440,N,00651.6583,W,1,08,0.9,15.0,M,48.3,M,,*43
$GPVTG,30.0,T,30.0,M,020.0,N,037.0,K,A*25

$GPRMC,215214.15,A,3359.2488,N,00651.6550,W,020.0,030.0,031125,*03
$GPGGA,215214.15,3359.2488,N,00651.6550,W,1,08,0.9,15.0,M,48.3,M,,*4F
$GPVTG,30.0,T,30.0,M,020.0,N,037.0,K,A*25

$GPRMC,215215.15,A,3359.2536,N,00651.6516,W,020.0,030.0,031125,*04
$GPGGA,215215.15,3359.2536,N,00651.6516,W,1,08,0.9,15.0,M,48.3,M,,*48
$GPVTG,30.0,T,30.0,M,020.0,N,037.0,K,A*25

$GPRMC,215216.15,A,3359.2584,N,00651.6483,W,020.0,030.0,031125,*03
$GPGGA,215216.15,3359.2584,N,00651.6483,W,1,08,0.9,15.0,M,48.3,M,,*4F
$GPVTG,30.0,T,30.0,M,020.0,N,037.0,K,A*25

$GPRMC,215217.15,A,3359.2633,N,00651.6449,W,020.0,030.0,031125,*0B
$GPGGA,215217.15,3359.2633,N,00651.6449,W,1,08,0.9,15.0,M,48.3,M,,*47
$GPVTG,30.0,T,30.0,M,020.0,N,037.0,K,A*25

$GPRMC,215218.15,A,3359.2681,N,00651.6416,W,020.0,030.0,031125,*07
$GPGGA,215218.15,3359.2681,N,00651.6416,W,1,08,0.9,15.0,M,48.3,M,,*4B
$GPVTG,30.0,T,30.0,M,020.0,N,037.0,K,A*25

$GPRMC,215219.15,A,3359.2729,N,00651.6382,W,020.0,030.0,031125,*0F
$GPGGA,215219.15,3359.2729,N,00651.6382,W,1,08,0.9,15.0,M,48.3,M,,*43
$GPVTG,30.0,T,30.0,M,020.0,N,037.0,K,A*25

$GPRMC,215220.15,A,3359.2777,N,00651.6349,W,020.0,030.0,031125,*09
$GPGGA,215220.15,3359.2777,N,00651.6349,W,1,08,0.9,15.0,M,48.3,M,,*45
$GPVTG,30.0,T,30.0,M,020.0,N,037.0,K,A*25

$GPRMC,215221.15,A,3359.2825,N,00651.6315,W,020.0,030.0,031125,*09
$GPGGA,215221.15,3359.2825,N,00651.6315,W,1,08,0.9,15.0,M,48.3,M,,*45
$GPVTG,30.0,T,30.0,M,020.0,N,037.0,K,A*25

$GPRMC,215222.15,A,3359.2873,N,00651.6282,W,020.0,030.0,031125,*06
$GPGGA,215222.15,3359.2873,N,00651.6282,W,1,08,0.9,15.0,M,48.3,M,,*4A
$GPVTG,30.0,T,30.0,M,020.0,N,037.0,K,A*25

$GPRMC,215223.16,A,3359.2921,N,00651.6248,W,020.0,030.0,031125,*04
$GPGGA,215223.16,3359.2921,N,00651.6248,W,1,08,0.9,15.0,M,48.3,M,,*48
$GPVTG,30.0,T,30.0,M,020.0,N,037.0,K,A*25

$GPRMC,215224.16,A,3359.2969,N,00651.6215,W,020.0,030.0,031125,*07
$GPGGA,215224.16,3359.2969,N,00651.6215,W,1,08,0.9,15.0,M,48.3,M,,*4B
$GPVTG,30.0,T,30.0,M,020.0,N,037.0,K,A*25

$GPRMC,215225.16,A,3359.3017,N,00651.6181,W,020.0,030.0,031125,*09
$GPGGA,215225.16,3359.3017,N,00651.6181,W,1,08,0.9,15.0,M,48.3,M,,*45
$GPVTG,30.0,T,30.0,M,020.0,N,037.0,K,A*25

$GPRMC,215226.16,A,3359.3065,N,00651.6148,W,020.0,030.0,031125,*0A
$GPGGA,215226.16,3359.3065,N,00651.6148,W,1,08,0.9,15.0,M,48.3,M,,*46
$GPVTG,30.0,T,30.0,M,020.0,N,037.0,K,A*25

$GPRMC,215227.16,A,3359.3113,N,00651.6114,W,020.0,030.0,031125,*02
$GPGGA,215227.16,3359.3113,N,00651.6114,W,1,08,0.9,15.0,M,48.3,M,,*4E
$GPVTG,30.0,T,30.0,M,020.0,N,037.0,K,A*25

$GPRMC,215228.16,A,3359.3161,N,00651.6081,W,020.0,030.0,031125,*05
$GPGGA,215228.16,3359.3161,N,00651.6081,W,1,08,0.9,15.0,M,48.3,M,,*49
$GPVTG,30.0,T,30.0,M,020.0,N,037.0,K,A*25

$GPRMC,215229.16,A,3359.3210,N,00651.6047,W,020.0,030.0,031125,*0B
$GPGGA,215229.16,3359.3210,N,00651.6047,W,1,08,0.9,15.0,M,48.3,M,,*47
$GPVTG,30.0,T,30.0,M,020.0,N,037.0,K,A*25

$GPRMC,215230.16,A,3359.3258,N,00651.6014,W,020.0,030.0,031125,*09
$GPGGA,215230.16,3359.3258,N,00651.6014,W,1,08,0.9,15.0,M,48.3,M,,*45
$GPVTG,30.0,T,30.0,M,020.0,N,037.0,K,A*25

$GPRMC,215231.16,A,3359.3306,N,00651.5980,W,020.0,030.0,031125,*05
$GPGGA,215231.16,3359.3306,N,00651.5980,W,1,08,0.9,15.0,M,48.3,M,,*49
$GPVTG,30.0,T,30.0,M,020.0,N,037.0,K,A*25

$GPRMC,215232.17,A,3359.3354,N,00651.5947,W,020.0,030.0,031125,*0B
$GPGGA,215232.17,3359.3354,N,00651.5947,W,1,08,0.9,15.0,M,48.3,M,,*47
$GPVTG,30.0,T,30.0,M,020.0,N,037.0,K,A*25

$GPRMC,215233.17,A,3359.3402,N,00651.5913,W,020.0,030.0,031125,*0F
$GPGGA,215233.17,3359.3402,N,00651.5913,W,1,08,0.9,15.0,M,48.3,M,,*43
$GPVTG,30.0,T,30.0,M,020.0,N,037.0,K,A*25

$GPRMC,215234.17,A,3359.3450,N,00651.5880,W,020.0,030.0,031125,*04
$GPGGA,215234.17,3359.3450,N,00651.5880,W,1,08,0.9,15.0,M,48.3,M,,*48
$GPVTG,30.0,T,30.0,M,020.0,N,037.0,K,A*25

$GPRMC,215235.17,A,3359.3498,N,00651.5847,W,020.0,030.0,031125,*0A
$GPGGA,215235.17,3359.3498,N,00651.5847,W,1,08,0.9,15.0,M,48.3,M,,*46
$GPVTG,30.0,T,30.0,M,020.0,N,037.0,K,A*25

$GPRMC,215236.17,A,3359.3546,N,00651.5813,W,020.0,030.0,031125,*0A
$GPGGA,215236.17,3359.3546,N,00651.5813,W,1,08,0.9,15.0,M,48.3,M,,*46
$GPVTG,30.0,T,30.0,M,020.0,N,037.0,K,A*25

$GPRMC,215237.17,A,3359.3594,N,00651.5780,W,020.0,030.0,031125,*01
$GPGGA,215237.17,3359.3594,N,00651.5780,W,1,08,0.9,15.0,M,48.3,M,,*4D
$GPVTG,30.0,T,30.0,M,020.0,N,037.0,K,A*25

$GPRMC,215238.17,A,3359.3642,N,00651.5746,W,020.0,030.0,031125,*0C
$GPGGA,215238.17,3359.3642,N,00651.5746,W,1,08,0.9,15.0,M,48.3,M,,*40
$GPVTG,30.0,T,30.0,M,020.0,N,037.0,K,A*25

$GPRMC,215239.17,A,3359.3690,N,00651.5713,W,020.0,030.0,031125,*02
$GPGGA,215239.17,3359.3690,N,00651.5713,W,1,08,0.9,15.0,M,48.3,M,,*4E
$GPVTG,30.0,T,30.0,M,020.0,N,037.0,K,A*25

$GPRMC,215240.18,A,3359.3738,N,00651.5679,W,020.0,030.0,031125,*0D
$GPGGA,215240.18,3359.3738,N,00651.5679,W,1,08,0.9,15.0,M,48.3,M,,*41
$GPVTG,30.0,T,30.0,M,020.0,N,037.0,K,A*25

$GPRMC,215241.18,A,3359.3786,N,00651.5646,W,020.0,030.0,031125,*05
$GPGGA,215241.18,3359.3786,N,00651.5646,W,1,08,0.9,15.0,M,48.3,M,,*49
$GPVTG,30.0,T,30.0,M,020.0,N,037.0,K,A*25

$GPRMC,215242.18,A,3359.3835,N,00651.5612,W,020.0,030.0,031125,*00
$GPGGA,215242.18,3359.3835,N,00651.5612,W,1,08,0.9,15.0,M,48.3,M,,*4C
$GPVTG,30.0,T,30.0,M,020.0,N,037.0,K,A*25

$GPRMC,215243.18,A,3359.3883,N,00651.5579,W,020.0,030.0,031125,*02
$GPGGA,215243.18,3359.3883,N,00651.5579,W,1,08,0.9,15.0,M,48.3,M,,*4E
$GPVTG,30.0,T,30.0,M,020.0,N,037.0,K,A*25

$GPRMC,215244.18,A,3359.3931,N,00651.5545,W,020.0,030.0,031125,*02
$GPGGA,215244.18,3359.3931,N,00651.5545,W,1,08,0.9,15.0,M,48.3,M,,*4E
$GPVTG,30.0,T,30.0,M,020.0,N,037.0,K,A*25

$GPRMC,215245.18,A,3359.3979,N,00651.5512,W,020.0,030.0,031125,*0D
$GPGGA,215245.18,3359.3979,N,00651.5512,W,1,08,0.9,15.0,M,48.3,M,,*41
$GPVTG,30.0,T,30.0,M,020.0,N,037.0,K,A*25

$GPRMC,215246.18,A,3359.4027,N,00651.5478,W,020.0,030.0,031125,*06
$GPGGA,215246.18,3359.4027,N,00651.5478,W,1,08,0.9,15.0,M,48.3,M,,*4A
$GPVTG,30.0,T,30.0,M,020.0,N,037.0,K,A*25

$GPRMC,215247.18,A,3359.4075,N,00651.5445,W,020.0,030.0,031125,*0E
$GPGGA,215247.18,3359.4075,N,00651.5445,W,1,08,0.9,15.0,M,48.3,M,,*42
$GPVTG,30.0,T,30.0,M,020.0,N,037.0,K,A*25

$GPRMC,215248.18,A,3359.4123,N,00651.5411,W,020.0,030.0,031125,*02
$GPGGA,215248.18,3359.4123,N,00651.5411,W,1,08,0.9,15.0,M,48.3,M,,*4E
$GPVTG,30.0,T,30.0,M,020.0,N,037.0,K,A*25

$GPRMC,215249.18,A,3359.4171,N,00651.5378,W,020.0,030.0,031125,*0C
$GPGGA,215249.18,3359.4171,N,00651.5378,W,1,08,0.9,15.0,M,48.3,M,,*40
$GPVTG,30.0,T,30.0,M,020.0,N,037.0,K,A*25

$GPRMC,215250.19,A,3359.4219,N,00651.5344,W,020.0,030.0,031125,*07
$GPGGA,215250.19,3359.4219,N,00651.5344,W,1,08,0.9,15.0,M,48.3,M,,*4B
$GPVTG,30.0,T,30.0,M,020.0,N,037.0,K,A*25

$GPRMC,215251.19,A,3359.4267,N,00651.5311,W,020.0,030.0,031125,*0F
$GPGGA,215251.19,3359.4267,N,00651.5311,W,1,08,0.9,15.0,M,48.3,M,,*43
$GPVTG,30.0,T,30.0,M,020.0,N,037.0,K,A*25

$GPRMC,215252.19,A,3359.4315,N,00651.5277,W,020.0,030.0,031125,*09
$GPGGA,215252.19,3359.4315,N,00651.5277,W,1,08,0.9,15.0,M,48.3,M,,*45
$GPVTG,30.0,T,30.0,M,020.0,N,037.0,K,A*25

$GPRMC,215253.19,A,3359.4363,N,00651.5244,W,020.0,030.0,031125,*09
$GPGGA,215253.19,3359.4363,N,00651.5244,W,1,08,0.9,15.0,M,48.3,M,,*45
$GPVTG,30.0,T,30.0,M,020.0,N,037.0,K,A*25

$GPRMC,215254.19,A,3359.4412,N,00651.5210,W,020.0,030.0,031125,*0E
$GPGGA,215254.19,3359.4412,N,00651.5210,W,1,08,0.9,15.0,M,48.3,M,,*42
$GPVTG,30.0,T,30.0,M,020.0,N,037.0,K,A*25

$GPRMC,215255.19,A,3359.4460,N,00651.5177,W,020.0,030.0,031125,*08
$GPGGA,215255.19,3359.4460,N,00651.5177,W,1,08,0.9,15.0,M,48.3,M,,*44
$GPVTG,30.0,T,30.0,M,020.0,N,037.0,K,A*25

$GPRMC,215256.19,A,3359.4508,N,00651.5143,W,020.0,030.0,031125,*03
$GPGGA,215256.19,3359.4508,N,00651.5143,W,1,08,0.9,15.0,M,48.3,M,,*4F
$GPVTG,30.0,T,30.0,M,020.0,N,037.0,K,A*25

$GPRMC,215257.19,A,3359.4556,N,00651.5110,W,020.0,030.0,031125,*0F
$GPGGA,215257.19,3359.4556,N,00651.5110,W,1,08,0.9,15.0,M,48.3,M,,*43
$GPVTG,30.0,T,30.0,M,020.0,N,037.0,K,A*25

$GPRMC,215258.19,A,3359.4604,N,00651.5076,W,020.0,030.0,031125,*05
$GPGGA,215258.19,3359.4604,N,00651.5076,W,1,08,0.9,15.0,M,48.3,M,,*49
$GPVTG,30.0,T,30.0,M,020.0,N,037.0,K,A*25

$GPRMC,215259.19,A,3359.4652,N,00651.5043,W,020.0,030.0,031125,*01
$GPGGA,215259.19,3359.4652,N,00651.5043,W,1,08,0.9,15.0,M,48.3,M,,*4D
$GPVTG,30.0,T,30.0,M,020.0,N,037.0,K,A*25

$GPRMC,215300.19,A,3359.4700,N,00651.5010,W,020.0,030.0,031125,*0C
$GPGGA,215300.19,3359.4700,N,00651.5010,W,1,08,0.9,15.0,M,48.3,M,,*40
$GPVTG,30.0,T,30.0,M,020.0,N,037.0,K,A*25

$GPRMC,215301.19,A,3359.4748,N,00651.4976,W,020.0,030.0,031125,*09
$GPGGA,215301.19,3359.4748,N,00651.4976,W,1,08,0.9,15.0,M,48.3,M,,*45
$GPVTG,30.0,T,30.0,M,020.0,N,037.0,K,A*25

